     2.11           OBSERVATION DATA    M (MIXED)           RINEX VERSION / TYPE
CONVBIN 2.4.2                           20180503 130236 UTC PGM / RUN BY / DATE 
log: 090405.ubx                                             COMMENT             
format: u-blox                                              COMMENT             
                                                            MARKER NAME         
                                                            MARKER NUMBER       
                                                            OBSERVER / AGENCY   
                                                            REC # / TYPE / VERS 
                                                            ANT # / TYPE        
  4139276.0872   613677.6187  4797652.4633                  APPROX POSITION XYZ 
        0.0000        0.0000        0.0000                  ANTENNA: DELTA H/E/N
     1     1                                                WAVELENGTH FACT L1/2
     4    C1    L1    C2    L2                              # / TYPES OF OBSERV 
  2018     3    23     9     4   21.0010000     GPS         TIME OF FIRST OBS   
  2018     3    23     9    12    2.0010000     GPS         TIME OF LAST OBS    
                                                            END OF HEADER       
 18  3 23  9  4 21.0010000  0  9G30S23G28G20S20G15G 5G 7G13
  21243284.538      159762.9722                                 
  38914181.046      119929.1502                                 
  21708880.620       94753.2802                                 
  23080094.440       70220.7542                                 
  39150613.436      122710.8242                                 
  23491464.634       55559.2012                                 
  21442442.826      173249.5262                                 
  23013036.673      171713.5852                                 
  21252633.579       79878.7872                                 
 18  3 23  9  4 22.0010000  0  9G30S23G28G20S20G15G 5G 7G13
  21244797.908      167716.5462                                 
  38915349.722      126071.9282                                 
  21709790.597       99538.2012                                 
  23080810.387       73980.7493                                 
  39151796.857      128926.6922                                 
  23492032.464       58545.0982                                 
  21443958.918      181222.6202                                 
  23014729.100      180608.9882                                 
  21253441.716       84125.6772                                 
 18  3 23  9  4 23.0010000  0  9G30S23G28G20S20G15G 5G 7G13
  21246309.166      175658.3862                                 
  38916516.514      132202.5532                                 
  21710698.811      104311.6152                                 
  23081523.246       77729.1472                                 
  39152976.684      135130.1762                                 
  23492598.601       61519.1322                                 
  21445473.737      189184.1512                                 
  23016419.520      189492.4332                                 
  21254247.567       88360.7652                                 
 18  3 23  9  4 24.0010000  0  9G30S23G28G20S20G15G 5G 7G13
  21247820.704      183601.8652                                 
  38917683.200      138334.4612                                 
  21711607.374      109086.8032                                 
  23082236.925       81479.3452                                 
  39154156.999      141334.8092                                 
  23493164.634       64494.4672                                 
  21446989.480      197147.5362                                 
  23018109.748      198377.3422                                 
  21255053.732       92597.4752                                 
 18  3 23  9  4 25.0010000  0  9G30S23G28G20S20G15G 5G 7G13
  21249330.637      191538.713                                  
  38918848.491      144459.8752                                 
  21712514.698      113856.065                                  
  23082949.243       85223.4903                                 
  39155336.198      147532.9042                                 
  23493730.073       67463.038                                  
  21448503.478      205104.942                                  
  23019799.540      207255.897                                  
  21255858.449       96828.004                                  
 18  3 23  9  4 26.0010000  0  9G30S23G28G20S20G15G 5G 7G13
  21250839.016      199464.234                                  
  38920011.792      150573.0272                                 
  21713419.858      118613.700                                  
  23083659.659       88955.9062                                 
  39156513.738      153718.9292                                 
  23494292.860       70420.096                                  
  21450015.557      213050.722                                  
  23021486.225      216122.456                                  
  21256660.758      101046.699                                  
 18  3 23  9  4 27.0010000  0  9G30S23G28S20G15G 5G20G 7G13
  21252346.087      207382.952                                  
  38921173.035      156678.9992                                 
  21714323.745      123364.719                                  
  39157688.923      159897.8432                                 
  23494853.832       73370.075                                  
  21451526.362      220989.882                                  
  23084369.446       92681.5952                                 
  23023172.545      224981.991                                  
  21257462.019      105258.484                                  
 18  3 23  9  4 28.0010000  0  9G30S23G28S20G15G 5G20G 7G13
  21253852.983      215302.246                                  
  38922334.905      162785.1752                                 
  21715227.544      128116.526                                  
  39158865.173      166077.0442                                 
  23495415.188       76320.473                                  
  21453036.888      228929.800                                  
  23085079.391       96408.0292                                 
  23024858.218      233841.908                                  
  21258263.560      109470.818                                  
 18  3 23  9  4 29.0010000  0  9G30S23G28S20G15G 5G20G 7G13
  21255358.972      223216.515                                  
  38923495.065      168885.9332                                 
  21716130.959      132863.434                                  
  39160040.096      172250.7822                                 
  23495975.916       79265.553                                  
  21454546.803      236864.872                                  
  23085787.172      100129.5432                                 
  23026542.356      242696.581                                  
  21259063.949      113678.083                                  
 18  3 23  9  4 30.0010000  0  9G30S23G28S20G15G 5G 7G20G13
  21256860.510      231110.131                                  
  38924651.858      174965.6832                                 
  21717030.099      137589.904                                  
  39161210.744      178403.2452                                 
  23496532.177       82189.829                                  
  21456052.443      244779.531                                  
  23028223.667      251530.468                                  
  23086491.532      103830.5532                                 
  21259860.517      117864.653                                  
 18  3 23  9  4 31.0010000  0  9G30S23G28S20G15G 5G 7G20G13
  21258361.404      238997.072                                  
  38925807.516      181038.3502                                 
  21717928.070      142309.885                                  
  39162380.240      184548.6372                                 
  23497087.094       85107.125                                  
  21457557.594      252687.671                                  
  23029903.041      260357.473                                  
  23087193.973      107524.9252                                 
  21260656.317      122044.467                                  
 18  3 23  9  4 32.0010000  0  9G30S23G28S20G15G 5G 7G20G13
  21259862.768      246887.327                                  
  38926963.977      187113.9702                                 
  21718826.110      147033.371                                  
  39163550.382      190697.0812                                 
  23497642.255       88027.602                                  
  21459063.041      260599.294                                  
  23031583.567      269187.561                                  
  23087897.688      111222.7162                                 
  21261451.645      126227.589                                  
 18  3 23  9  4 33.0010000  0  9G30S23G28S20G15G 5G 7G20G13
  21261364.080      254777.868                                  
  38928120.088      193189.4412                                 
  21719725.006      151757.346                                  
  39164720.035      196845.7082                                 
  23498197.922       90948.128                                  
  21460568.786      268511.415                                  
  23033263.849      278017.797                                  
  23088601.595      114920.9342                                 
  21262247.759      130410.945                                  
 18  3 23  9  4 34.0010000  0  9G30S23G28S20G15G 5G 7G20G13
  21262861.762      262651.572                                  
  38929272.518      199247.7162                                 
  21720620.568      156464.680                                  
  39165886.634      202976.9892                                 
  23498750.518       93851.608                                  
  21462070.866      276406.889                                  
  23034940.692      286830.947                                  
  23089302.256      118602.4382                                 
  21263040.121      134577.422                                  
 18  3 23  9  4 35.0010000  0  9G30S23G28S20G15G 5G 7G20G13
  21264357.089      270509.421                                  
  38930422.383      205289.7602                                 
  21721513.269      161156.355                                  
  39167050.442      209091.9442                                 
  23499300.026       96739.020                                  
  21463570.485      284286.697                                  
  23036614.622      295628.063                                  
  23089999.550      122268.1892                                 
  21263829.848      138727.995                                  
 18  3 23  9  4 36.0010000  0  9G30S23G28S20G15G 5G 7G20G13
  21265852.939      278370.542                                  
  38931572.911      211334.7122                                 
  21722406.511      165851.476                                  
  39168214.964      215209.6322                                 
  23499850.056       99629.500                                  
  21465071.081      292169.946                                  
  23038289.721      304428.251                                  
  23090698.047      125937.3672                                 
  21264620.361      142881.788                                  
 18  3 23  9  4 37.0010000  0  9G30S23G28S20G15G 5G 7G20G13
  21267350.063      286236.287                                  
  38932724.433      217383.9112                                 
  21723301.306      170551.409                                  
  39169379.627      221331.5472                                 
  23500400.716      102524.381                                  
  21466572.010      300058.015                                  
  23039964.837      313232.854                                  
  23091396.544      129610.730                                  
  21265411.501      147040.153                                  
 18  3 23  9  4 38.0010000  0  9G30S23G28S20G15G 5G 7G20G13
  21268843.610      294088.471                                  
  38933872.797      223419.1592                                 
  21724193.117      175237.989                                  
  39170541.602      227439.4522                                 
  23500948.583      105405.514                                  
  21468070.163      307932.707                                  
  23041637.545      322023.723                                  
  23092093.000      133271.193                                  
  21266200.251      151184.928                                  
 18  3 23  9  4 39.0010000  0  9G30S23G28S20G15G 5G 7G20G13
  21270335.289      301924.658                                  
  38935017.322      229438.0022                                 
  21725082.013      179908.748                                  
  39171701.099      233531.1572                                 
  23501493.413      108270.425                                  
  21469565.664      315791.602                                  
  23043307.478      330798.425                                  
  23092786.262      136915.721                                  
  21266985.895      155313.658                                  
 18  3 23  9  4 40.0010000  0  9G30S23G28S20G15G 5G 7G20G13
  21271826.550      309762.737                                  
  38936163.313      235458.3382                                 
  21725971.381      184581.595                                  
  39172860.823      239624.3882                                 
  23502038.663      111137.011                                  
  21471061.218      323652.557                                  
  23044977.412      339574.761                                  
  23093480.536      140562.259                                  
  21267771.817      159444.224                                  
 18  3 23  9  4 41.0010000  0  9G30S23G28S20G15G 5G 7G20G13
  21273319.695      317608.160                                  
  38937309.914      241485.6342                                 
  21726862.145      189261.985                                  
  39174021.350      245724.5302                                 
  23502586.024      114010.740                                  
  21472558.551      331521.072                                  
  23046648.654      348358.285                                  
  23094175.945      144216.275                                  
  21268559.241      163582.104                                  
 18  3 23  9  4 42.0010000  0  9G30S23G28S20G15G 5G 7G20G13
  21274810.851      325446.049                                  
  38938455.207      247505.0372                                 
  21727751.146      193935.027                                  
  39175180.481      251816.7832                                 
  23503131.203      116876.719                                  
  21474054.349      339382.214                                  
  23048318.378      357134.067                                  
  23094870.185      147862.881                                  
  21269345.007      167712.393                                  
 18  3 23  9  4 43.0010000  0  9G30S23G28S20G15G 5G 7G20G13
  21276299.861      333269.775                                  
  38939598.109      253509.8542                                 
  21728637.879      198594.087                                  
  39176336.558      257894.3642                                 
  23503674.202      119728.305                                  
  21475547.215      347229.391                                  
  23049985.415      365895.496                                  
  23095561.248      151495.412                                  
  21270128.452      171828.477                                  
 18  3 23  9  4 44.0010000  0  9G30S23G28S20G15G 5G 7G20G13
  21277788.068      341092.382                                  
  38940740.557      259513.1452                                 
  21729524.071      203252.237                                  
  39177492.983      263970.2132                                 
  23504216.345      122578.566                                  
  21477040.273      355075.637                                  
  23051652.504      374655.616                                  
  23096252.242      155126.950                                  
  21270911.321      175943.398                                  
 18  3 23  9  4 45.0010000  0  9G30S23G28S20G15G 5G 7G20G13
  21279278.002      348922.355                                  
  38941884.366      265523.4882                                 
  21730411.938      207917.930                                  
  39178650.125      270053.1642                                 
  23504760.286      125435.958                                  
  21478535.146      362929.439                                  
  23053320.640      383422.921                                  
  23096945.172      158765.970                                  
  21271695.691      180065.652                                  
 18  3 23  9  4 46.0010000  0  9G30S23G28S20G15G 5G 7G20G13
  21280767.693      356750.602                                  
  38943027.443      271531.6862                                 
  21731299.561      212582.074                                  
  39179807.912      276134.1482                                 
  23505303.930      128291.431                                  
  21480029.338      370781.693                                  
  23054988.392      392188.269                                  
  23097637.335      162403.358                                  
  21272480.008      184186.114                                  
 18  3 23  9  4 47.0010000  0  9G30S23G28S20G15G 5G 7G20G13
  21282255.236      364568.597                                  
  38944168.408      277529.2732                                 
  21732184.897      217236.176                                  
  39180962.226      282204.7492                                 
  23505845.026      131136.468                                  
  21481521.367      378623.892                                  
  23056654.365      400943.205                                  
  23098328.032      166030.657                                  
  21273262.145      188296.295                                  
 18  3 23  9  4 48.0010000  0  9G30S23G28S20G15G 5G 7G20G13
  21283742.257      372382.725                                  
  38945308.605      283522.5932                                 
  21733069.746      221886.602                                  
  39182115.947      288271.0292                                 
  23506385.721      133977.420                                  
  21483013.151      386462.412                                  
  23058319.046      409694.091                                  
  23099017.333      169654.135                                  
  21274043.810      192402.561                                  
 18  3 23  9  4 49.0010000  0  9G30S23G28S20G15G 5G 7G20G13
  21285230.691      380205.455                                  
  38946451.280      289524.1192                                 
  21733956.932      226545.806                                  
  39183272.181      294345.3842                                 
  23506927.865      136826.730                                  
  21484506.872      394309.714                                  
  23059985.419      418453.348                                  
  23099708.484      173286.354                                  
  21274826.941      196517.372                                  
 18  3 23  9  4 50.0010000  0  9G30S23G28S20G15G 5G 7G20G13
  21286719.421      388029.993                                  
  38947593.799      295527.0352                                 
  21734843.490      231207.020                                  
  39184428.625      300421.1322                                 
  23507470.287      139677.660                                  
  21486000.524      402159.014                                  
  23061652.334      427214.236                                  
  23100400.316      176920.480                                  
  21275609.862      200633.956                                  
 18  3 23  9  4 51.0010000  0  9G30S23G28S20G15G 5G 7G20G13
  21288207.663      395849.943                                  
  38948735.252      301524.9972                                 
  21735729.962      235863.848                                  
  39185583.620      306491.8812                                 
  23508011.960      142523.767                                  
  21487493.163      410003.917                                  
  23063318.289      435970.333                                  
  23101091.048      180550.149                                  
  21276392.208      204745.906                                  
 18  3 23  9  4 52.0010000  0  9G30S23G28S20G15G 5G 7G20G13
  21289695.835      403670.630                                  
  38949876.357      307523.3382                                 
  21736616.467      240521.613                                  
  39186739.069      312562.8202                                 
  23508553.946      145370.445                                  
  21488986.081      417849.751                                  
  23064984.872      444726.970                                  
  23101782.268      184180.669                                  
  21277174.955      208858.572                                  
 18  3 23  9  4 53.0010000  0  9G30S23G28S20G15G 5G 7G20G13
  21291185.630      411499.303                                  
  38951019.206      313529.2812                                 
  21737503.916      245187.550                                  
  39187895.774      318641.3292                                 
  23509096.840      148224.876                                  
  21490480.378      425703.759                                  
  23066652.746      453491.419                                  
  23102474.553      187819.293                                  
  21277959.098      212979.171                                  
 18  3 23  9  4 54.0010000  0  9G30S23G28S20G15G 5G 7G20G13
  21292675.774      419330.925                                  
  38952162.998      319537.7932                                 
  21738392.411      249856.626                                  
  39189052.653      324722.4402                                 
  23509640.396      151082.010                                  
  21491975.531      433560.897                                  
  23068321.074      462258.620                                  
  23103167.676      191460.977                                  
  21278743.921      217102.661                                  
 18  3 23  9  4 55.0010000  0  9G30S23G28S20G15G 5G 7G20G13
  21294165.272      427158.381                                  
  38953305.272      325541.8032                                 
  21739280.348      254521.717                                  
  39190209.707      330799.0082                                 
  23510182.679      153934.846                                  
  21493469.810      441414.064                                  
  23069988.198      471021.440                                  
  23103859.298      195098.621                                  
  21279527.366      221221.949                                  
 18  3 23  9  4 56.0010000  0  9G30S23G28S20G15G 5G 7G20G13
  21295654.369      434984.444                                  
  38954446.761      331544.0412                                 
  21740167.726      259185.637                                  
  39191365.418      336873.9432                                 
  23510725.434      156786.035                                  
  21494964.072      449266.023                                  
  23071655.567      479782.693                                  
  23104551.478      198734.990                                  
  21280310.986      225339.807                                  
 18  3 23  9  4 57.0010000  0  9G30S23G28S20G15G 5G 7G20G13
  21297145.629      442818.343                                  
  38955590.064      337553.7202                                 
  21741057.112      263857.560                                  
  39192523.327      342956.3892                                 
  23511268.606      159644.835                                  
  21496459.870      457126.005                                  
  23073323.877      488551.573                                  
  23105244.880      202379.283                                  
  21281095.617      229465.457                                  
 18  3 23  9  4 58.0010000  0  9G30S23G28S20G15G 5G 7G20G13
  21298636.803      450657.240                                  
  38956734.711      343567.9572                                 
  21741946.985      268534.684                                  
  39193681.236      349043.3402                                 
  23511813.978      162508.429                                  
  21497956.453      464991.179                                  
  23074993.444      497325.275                                  
  23105939.259      206028.702                                  
  21281881.994      233596.051                                  
 18  3 23  9  4 59.0010000  0  9G30S23G28S20G15G 5G 7G20G13
  21300125.847      458483.307                                  
  38957876.549      349569.0392                                 
  21742834.713      273199.162                                  
  39194836.563      355116.9182                                 
  23512356.453      165358.983                                  
  21499450.017      472843.712                                  
  23076660.429      506085.944                                  
  23106630.776      209665.388                                  
  21282665.177      237713.780                                  
 18  3 23  9  5  0.0010000  0  9G30S23G28S20G15G 5G 7G20G13
  21301613.095      466297.966                                  
  38959016.467      355558.3142                                 
  21743720.294      277852.435                                  
  39195990.057      361178.7582                                 
  23512896.712      168197.920                                  
  21500942.220      480685.040                                  
  23078325.947      514835.033                                  
  23107320.950      213290.837                                  
  21283446.580      241820.065                                  
 18  3 23  9  5  1.0010000  0  9G30S23G28S20G15G 5G 7G20G13
  21303101.406      474119.437                                  
  38960157.153      361553.9862                                 
  21744607.009      282512.697                                  
  39197145.349      367247.1192                                 
  23513437.389      171043.445                                  
  21502435.592      488533.333                                  
  23079992.199      523590.704                                  
  23108011.560      216923.139                                  
  21284228.472      245933.097                                  
 18  3 23  9  5  2.0010000  0  9G30S23G28S20G15G 5G 7G20G13
  21304591.602      481950.274                                  
  38961299.845      367558.6672                                 
  21745495.819      287182.545                                  
  39198302.141      373324.5382                                 
  23513980.545      173898.135                                  
  21503931.251      496391.211                                  
  23081659.794      532355.565                                  
  23108704.229      220564.972                                  
  21285013.837      250055.466                                  
 18  3 23  9  5  3.0000000  0  9G30S23G28S20G15G 5G 7G20G13
  21006287.406      489773.111                                  
  38662648.163      373554.9542                                 
  21446590.079      291844.573                                  
  38899664.838      379393.5542                                 
  23214729.186      176744.642                                  
  21205632.150      504241.270                                  
  22783533.293      541112.220                                  
  22809603.919      224198.930                                  
  20986003.657      254169.790                                  
 18  3 23  9  5  4.0000000  0  9G30S23G28S20G15G 5G 7G20G13
  21007774.060      497584.491                                  
  38663787.104      379539.4332                                 
  21447475.206      296495.341                                  
  38900817.006      385450.7262                                 
  23215268.642      179579.467                                  
  21207124.039      512080.049                                  
  22785197.416      549857.212                                  
  22810293.569      227821.544                                  
  20986784.450      258272.608                                  
 18  3 23  9  5  5.0000000  0  9G30S23G28S20G15G 5G 7G20G13
  21009261.255      505400.776                                  
  38664926.533      385528.3812                                 
  21448361.346      301151.204                                  
  38901970.605      391512.2272                                 
  23215808.831      182418.982                                  
  21208617.080      519923.934                                  
  22786862.743      558606.935                                  
  22810983.603      231449.160                                  
  20987566.342      262380.288                                  
 18  3 23  9  5  6.0000000  0  9G30S23G28S20G15G 5G 7G20G13
  21010750.788      513228.456                                  
  38666068.022      391528.3692                                 
  21449249.300      305818.646                                  
  38903126.071      397584.6022                                 
  23216350.835      185269.667                                  
  21210111.883      527779.389                                  
  22788529.936      567367.857                                  
  22811676.080      235088.295                                  
  20988350.275      266499.328                                  
 18  3 23  9  5  7.0000000  0  9G30S23G28S20G15G 5G 7G20G13
  21012240.321      521052.993                                  
  38667209.057      397524.8292                                 
  21450136.853      310483.144                                  
  38904280.648      403653.6542                                 
  23216892.367      188117.034                                  
  21211605.813      535631.893                                  
  22790196.328      576125.438                                  
  22812368.016      238724.390                                  
  20989133.110      270615.178                                  
 18  3 23  9  5  8.0000000  0  9G30S23G28S20G15G 5G 7G20G13
  21013727.237      528868.051                                  
  38668348.504      403511.4422                                 
  21451022.556      315138.350                                  
  38905433.723      409713.0272                                 
  23217432.539      190954.680                                  
  21213098.906      543475.093                                  
  22791860.764      584873.324                                  
  22813058.242      242351.123                                  
  20989914.408      274721.492                                  
 18  3 23  9  5  9.0000000  0  9G30S23G28S20G15G 5G 7G20G13
  21015214.763      536686.339                                  
  38669488.247      409500.8852                                 
  21451909.097      319797.002                                  
  38906587.776      415775.3192                                 
  23217972.798      193795.364                                  
  21214592.052      551321.739                                  
  22793525.829      593624.287                                  
  22813749.009      245981.224                                  
  20990696.579      278831.018                                  
 18  3 23  9  5 10.0000000  0  9G30S23G28S20G15G 5G 7G20G13
  21016705.012      544516.943                                  
  38670630.538      415502.2912                                 
  21452797.767      324468.151                                  
  38907743.399      421849.4952                                 
  23218515.464      196648.165                                  
  21216087.448      559180.867                                  
  22795193.738      602387.354                                  
  22814442.027      249623.760                                  
  20991481.193      282952.806                                  
 18  3 23  9  5 11.0000000  0  9G30S23G28S20G15G 5G 7G20G13
  21018195.749      552349.730                                  
  38671773.405      421505.4792                                 
  21453687.152      329141.686                                  
  38908899.354      427925.3482                                 
  23219058.969      199502.910                                  
  21217583.176      567042.369                                  
  22796861.421      611152.407                                  
  22815135.900      253268.603                                  
  20992265.773      287076.739                                  
 18  3 23  9  5 12.0000000  0  9G30S23G28S20G15G 5G 7G20G13
  21019685.492      560176.766                                  
  38672914.248      427502.5992                                 
  21454574.967      333809.672                                  
  38910054.296      433994.8122                                 
  23219600.693      202351.736                                  
  21219077.822      574898.320                                  
  22798528.161      619911.536                                  
  22815828.726      256907.804                                  
  20993049.253      291194.888                                  
 18  3 23  9  5 13.0000000  0  9G30S23G28S20G15G 5G 7G20G13
  21021175.269      568007.310                                  
  38674056.243      433502.7742                                 
  21455463.829      338481.326                                  
  38911209.832      440067.4012                                 
  23220143.692      205203.817                                  
  21220573.480      582757.955                                  
  22800195.826      628673.959                                  
  22816522.215      260550.630                                  
  20993833.727      295316.483                                  
 18  3 23  9  5 14.0000000  0  9G30S23G28S20G15G 5G 7G20G13
  21022667.629      575850.293                                  
  38675200.314      439515.0172                                 
  21456355.413      343165.644                                  
  38912367.846      446152.4212                                 
  23220688.400      208068.166                                  
  21222071.756      590630.207                                  
  22801865.306      637448.631                                  
  22817217.344      264205.989                                  
  20994620.243      299450.479                                  
 18  3 23  9  5 15.0000000  0  9G30S23G28S20G15G 5G 7G20G13
  21024161.071      583698.625                                  
  38676345.153      445532.2152                                 
  21457247.450      347855.492                                  
  38913527.640      452242.3202                                 
  23221234.488      210937.643                                  
  21223570.712      598508.007                                  
  22803536.496      646228.465                                  
  22817913.346      267866.830                                  
  20995407.667      303589.780                                  
 18  3 23  9  5 16.0000000  0  9G30S23G28S20G15G 5G 7G20G13
  21025654.635      591546.548                                  
  38677490.062      451548.6632                                 
  21458139.837      352545.105                                  
  38914685.602      458331.4302                                 
  23221780.365      213806.472                                  
  21225069.878      606385.589                                  
  22805207.668      655007.686                                  
  22818609.994      271527.352                                  
  20996195.370      307728.635                                  
 18  3 23  9  5 17.0000000  0  9G30S23G28S20G15G 5G 7G20G13
  21027148.828      599398.289                                  
  38678635.669      457568.4422                                 
  21459032.835      357238.758                                  
  38915845.936      464424.1432                                 
  23222326.836      216678.958                                  
  21226570.056      614267.175                                  
  22806879.120      663790.510                                  
  22819307.671      275191.862                                  
  20996983.840      311871.275                                  
 18  3 23  9  5 18.0000000  0  9G30S23G28S20G15G 5G 7G20G13
  21028645.254      607261.111                                  
  38679782.602      463598.9862                                 
  21459927.734      361943.706                                  
  38917007.126      470527.4802                                 
  23222875.576      219562.303                                  
  21228071.315      622160.047                                  
  22808552.473      672584.250                                  
  22820006.901      278867.581                                  
  20997774.649      316024.971                                  
 18  3 23  9  5 19.0000000  0  9G30S23G28S20G15G 5G 7G20G13
  21030142.517      615129.489                                  
  38680931.699      469634.6752                                 
  21460824.623      366654.369                                  
  38918169.311      476635.6612                                 
  23223425.327      222450.970                                  
  21229575.001      630058.643                                  
  22810226.926      681383.332                                  
  22820707.649      282548.920                                  
  20998566.261      320184.157                                  
 18  3 23  9  5 20.0000000  0  9G30S23G28S20G15G 5G 7G20G13
  21031639.606      622996.506                                  
  38682079.609      475668.5872                                 
  21461720.500      371363.891                                  
  38919330.815      482742.0532                                 
  23223974.817      225338.078                                  
  21231077.517      637956.071                                  
  22811900.961      690180.866                                  
  22821408.049      286229.029                                  
  20999357.244      324341.962                                  
 18  3 23  9  5 21.0000000  0  9G30S23G28S20G15G 5G 7G20G13
  21033136.818      630865.332                                  
  38683227.781      481703.9392                                 
  21462616.935      376075.416                                  
  38920492.894      488849.8822                                 
  23224524.691      228226.806                                  
  21232580.242      645855.492                                  
  22813575.484      698980.016                                  
  22822109.233      289911.062                                  
  21000148.647      328501.520                                  
 18  3 23  9  5 22.0000000  0  9G30S23G28S20G15G 5G 7G20G13
  21034636.472      638745.005                                  
  38684378.221      487749.7972                                 
  21463515.796      380797.970                                  
  38921656.929      494968.2882                                 
  23225075.560      231126.172                                  
  21234085.480      653765.963                                  
  22815251.874      707789.793                                  
  22822811.657      293604.078                                  
  21000942.352      332671.890                                  
 18  3 23  9  5 23.0000000  0  9G30S23G28S20G15G 5G 7G20G13
  21036137.208      646632.442                                  
  38685530.005      493803.0052                                 
  21464415.791      385528.493                                  
  38922822.673      501094.1192                                 
  23225628.470      234033.075                                  
  21235592.569      661684.379                                  
  22816929.415      716607.157                                  
  22823516.419      297304.973                                  
  21001737.664      336849.983                                  
 18  3 23  9  5 24.0000000  0  9G30S23G28S20G15G 5G 7G20G13
  21037637.578      654517.425                                  
  38686681.458      499853.4122                                 
  21465315.646      390256.760                                  
  38923988.208      507217.1532                                 
  23226181.083      236937.338                                  
  21237098.714      669600.520                                  
  22818606.975      725421.889                                  
  22824220.064      301003.537                                  
  21002532.434      341025.602                                  
 18  3 23  9  5 25.0000000  0  9G30S23G28S20G15G 5G 7G20G13
  21039136.778      662395.142                                  
  38687831.986      505896.1862                                 
  21466214.053      394977.936                                  
  38925151.544      513332.6552                                 
  23226732.912      239834.125                                  
  21238604.249      677509.583                                  
  22820282.876      734229.145                                  
  22824923.064      304694.933                                  
  21003325.459      345193.898                                  
 18  3 23  9  5 26.0000000  0  9G30S23G28S20G15G 5G 7G20G13
  21040638.073      670283.410                                  
  38688983.543      511949.0772                                 
  21467114.519      399709.881                                  
  38926316.434      519458.2872                                 
  23227286.171      242741.254                                  
  21240111.145      685429.389                                  
  22821959.912      743046.777                                  
  22825627.738      308397.020                                  
  21004120.473      349372.702                                  
 18  3 23  9  5 27.0000000  0  9G30S23G28S20G15G 5G 7G20G13
  21042140.955      678182.021                                  
  38690137.282      518011.8882                                 
  21468016.783      404452.346                                  
  38927483.696      525593.6952                                 
  23227841.105      245658.504                                  
  21241620.083      693359.719                                  
  22823639.792      751874.531                                  
  22826334.524      312109.570                                  
  21004917.669      353561.815                                  
 18  3 23  9  5 28.0000000  0  9G30S23G28S20G15G 5G 7G20G13
  21043642.407      686073.267                                  
  38691289.258      524066.9142                                 
  21468918.261      409187.652                                  
  38928649.754      531721.3792                                 
  23228394.870      248568.202                                  
  21243127.485      701282.875                                  
  22825318.451      760694.745                                  
  22827039.478      315814.856                                  
  21005713.259      357743.517                                  
 18  3 23  9  5 29.0000000  0  9G30S23G28S20G15G 5G 7G20G13
  21045142.271      693955.148                                  
  38692439.978      530112.2382                                 
  21469817.680      413913.798                                  
  38929814.295      537839.3962                                 
  23228946.838      251468.327                                  
  21244633.910      709196.871                                  
  22826994.980      769505.392                                  
  22827742.251      319510.929                                  
  21006507.576      361915.820                                  
 18  3 23  9  5 30.0000000  0  9G30S23G28S20G15G 5G 7G20G13
  21046643.356      701845.495                                  
  38693591.936      536165.6932                                 
  21470719.036      418648.609                                  
  38930979.847      543965.2872                                 
  23229500.289      254376.704                                  
  21246141.260      717119.523                                  
  22828673.080      778324.327                                  
  22828446.943      323215.571                                  
  21007302.800      366096.564                                  
 18  3 23  9  5 31.0000000  0  9G30S23G28S20G15G 5G 7G20G13
  21048147.809      709750.019                                  
  38694746.704      542232.9332                                 
  21471622.661      423397.765                                  
  38932148.087      550104.8652                                 
  23230056.829      257299.071                                  
  21247651.978      725056.524                                  
  22830353.798      787157.237                                  
  22829155.108      326934.509                                  
  21008101.217      370291.418                                  
 18  3 23  9  5 32.0000000  0  9G30S23G28S20G15G 5G 7G20G13
  21049651.983      717652.351                                  
  38695900.460      548297.5732                                 
  21472526.303      428144.950                                  
  38933316.030      556242.1812                                 
  23230612.269      260219.013                                  
  21249161.648      732991.515                                  
  22832033.975      795987.746                                  
  22829862.644      330651.355                                  
  21008899.373      374484.063                                  
 18  3 23  9  5 33.0000000  0  9G30S23G28S20G15G 5G 7G20G13
  21051153.975      725547.081                                  
  38697052.576      554354.2532                                 
  21473428.078      432884.744                                  
  38934482.158      562371.7222                                 
  23231166.576      263131.186                                  
  21250670.115      740919.107                                  
  22833712.424      804810.473                                  
  22830568.593      334360.759                                  
  21009695.068      378669.056                                  
 18  3 23  9  5 34.0000000  0  9G30S23G28S20G15G 5G 7G20G13
  21052657.730      733448.464                                  
  38698206.454      560417.2012                                 
  21474331.685      437631.353                                  
  38935650.101      568507.3502                                 
  23231722.208      266049.741                                  
  21252179.821      748853.526                                  
  22835392.618      813639.656                                  
  22831275.589      338076.896                                  
  21010492.804      382860.642                                  
 18  3 23  9  5 35.0000000  0  9G30S23G28S20G15G 5G 7G20G13
  21054164.051      741364.840                                  
  38699362.950      566494.7072                                 
  21475238.014      442393.160                                  
  38936821.116      574657.4882                                 
  23232280.423      268983.104                                  
  21253692.964      756803.132                                  
  22837076.006      822483.653                                  
  22831985.516      341808.151                                  
  21011293.228      387067.211                                  
 18  3 23  9  5 36.0000000  0  9G30S23G28S20G15G 5G 7G20G13
  21055670.947      749282.563                                  
  38700519.917      572573.2382                                 
  21476144.169      447156.527                                  
  38937991.746      580808.6722                                 
  23232838.987      271918.1293                                 
  21255206.439      764754.268                                  
  22838759.027      831328.792                                  
  22832696.176      345540.886                                  
  21012094.054      391275.079                                  
 18  3 23  9  5 37.0000000  0  9G30S23G28S20G15G 5G 7G20G13
  21057176.168      757192.495                                  
  38701675.034      578643.5752                                 
  21477049.120      451912.274                                  
  38939160.387      586951.4822                                 
  23233395.562      274844.6572                                 
  21256717.331      772697.798                                  
  22840440.478      840165.935                                  
  22833404.498      349265.944                                  
  21012893.204      395475.117                                  
 18  3 23  9  5 38.0000000  0  9G30S23G28S20G15G 5G 7G20G13
  21058682.244      765107.274                                  
  38702831.582      584718.4522                                 
  21477955.222      456673.088                                  
  38940330.546      593098.7892                                 
  23233953.079      277775.8302                                 
  21258229.811      780646.375                                  
  22842123.377      849007.740                                  
  22834114.530      352995.992                                  
  21013693.453      399679.975                                  
 18  3 23  9  5 39.0000000  0  9G30S23G28S20G15G 5G 7G20G13
  21060191.775      773036.256                                  
  38703990.312      590807.1052                                 
  21478863.524      461448.292                                  
  38941502.747      599260.0122                                 
  23234512.829      280721.0092                                 
  21259745.572      788609.331                                  
  22843808.509      857863.559                                  
  22834826.498      356740.359                                  
  21014495.849      403898.997                                  
 18  3 23  9  5 40.0000000  0  9G30S23G28S20G15G 5G 7G20G13
  21061701.306      780970.331                                  
  38705149.163      596900.4542                                 
  21479773.814      466228.784                                  
  38942676.536      605425.8292                                 
  23235074.046      283671.0672                                 
  21261261.682      796577.576                                  
  22845494.829      866724.263                                  
  22835540.474      360489.931                                  
  21015299.920      408123.069                                  
 18  3 23  9  5 41.0000000  0  9G30S23G28S20G15G 5G 7G20G13
  21063210.628      788901.601                                  
  38706307.997      602990.6472                                 
  21480682.849      471006.662                                  
  38943848.789      611588.6282                                 
  23235634.791      286618.1452                                 
  21262777.355      804543.198                                  
  22847179.822      875581.975                                  
  22836253.577      364236.831                                  
  21016103.067      412344.293                                  
 18  3 23  9  5 42.0000000  0  9G30S23G28S20G15G 5G 7G20G13
  21064720.874      796839.358                                  
  38707468.576      609086.9512                                 
  21481593.174      475791.207                                  
  38945022.491      617757.5932                                 
  23236196.932      289571.4932                                 
  21264294.285      812515.497                                  
  22848866.909      884445.992                                  
  22836967.605      367990.350                                  
  21016907.295      416571.986                                  
 18  3 23  9  5 43.0000000  0  9G30S23G28S20G15G 5G 7G20G13
  21066234.192      804791.054                                  
  38708631.232      615196.8182                                 
  21482506.379      480589.903                                  
  38946199.177      623940.0842                                 
  23236762.058      292538.056                                  
  21265814.007      820501.954                                  
  22850556.142      893323.767                                  
  22837684.321      371757.939                                  
  21017714.961      420813.579                                  
 18  3 23  9  5 44.0000000  0  9G30S23G28S20G15G 5G 7G20G13
  21067748.504      812750.278                                  
  38709795.475      621313.8042                                 
  21483421.381      485396.330                                  
  38947376.857      630129.6232                                 
  23237327.881      295512.483                                  
  21267334.933      828496.100                                  
  22852247.016      902208.814                                  
  22838402.362      375533.158                                  
  21018523.290      425062.656                                  
 18  3 23  9  5 45.0000000  0  9G30S23G28S20G15G 5G 7G20G13
  21069263.148      820710.199                                  
  38710959.527      627431.1102                                 
  21484335.197      490203.603                                  
  38948554.904      636319.5352                                 
  23237893.286      298487.351                                  
  21268855.964      836491.131                                  
  22853938.623      911094.377                                  
  22839120.613      379309.165                                  
  21019331.706      429312.379                                  
 18  3 23  9  5 46.0000000  0  9G30S23G28S20G15G 5G 7G20G13
  21070779.398      828676.888                                  
  38712125.114      633554.7272                                 
  21485251.857      495017.871                                  
  38949733.875      642515.8132                                 
  23238460.226      301468.772                                  
  21270378.461      844493.101                                  
  22855631.154      919986.539                                  
  22839839.876      383092.075                                  
  21020142.146      433568.817                                  
 18  3 23  9  5 47.0000000  0  9G30S23G28S20G15G 5G 7G20G13
  21072298.143      836657.260                                  
  38713292.691      639691.7072                                 
  21486171.256      499846.022                                  
  38950915.342      648725.3592                                 
  23239031.110      304463.664                                  
  21271903.941      852508.960                                  
  22857325.780      928892.188                                  
  22840562.071      386888.793                                  
  21020954.646      437838.910                                  
 18  3 23  9  5 48.0000000  0  9G30S23G28S20G15G 5G 7G20G13
  21073817.899      844645.429                                  
  38714461.733      645836.1292                                 
  21487091.528      504682.185                                  
  38952098.188      654942.2852                                 
  23239602.726      307466.174                                  
  21273430.643      860532.809                                  
  22859021.714      937805.461                                  
  22841285.976      390693.440                                  
  21021768.524      442116.789                                  
 18  3 23  9  5 49.0000000  0  9G30S23G28S20G15G 5G 7G20G13
  21075337.761      852633.707                                  
  38715629.903      651980.2262                                 
  21488011.800      509518.630                                  
  38953281.033      661159.0442                                 
  23240173.872      310468.591                                  
  21274957.206      868556.936                                  
  22860717.753      946718.599                                  
  22842010.230      394498.307                                  
  21022582.437      446394.717                                  
 18  3 23  9  5 50.0000000  0  9G30S23G28S20G15G 5G 7G20G13
  21076859.437      860627.043                                  
  38716800.237      658129.0502                                 
  21488933.765      514360.358                                  
  38954465.066      667380.2992                                 
  23240745.977      313475.808                                  
  21276485.601      876586.320                                  
  22862415.101      955636.652                                  
  22842735.181      398308.379                                  
  21023397.607      450677.682                                  
 18  3 23  9  5 51.0000000  0  9G30S23G28S20G15G 5G 7G20G13
  21078382.859      868632.809                                  
  38717972.700      664289.9202                                 
  21489857.737      519214.717                                  
  38955651.297      673613.8412                                 
  23241320.945      316495.311                                  
  21278016.055      884628.321                                  
  22864114.961      964566.939                                  
  22843462.297      402131.006                                  
  21024215.045      454973.040                                  
