     2.11           OBSERVATION DATA    G (GPS)             RINEX VERSION / TYPE
CONVBIN 2.4.1                           20170124 163927 UTC PGM / RUN BY / DATE 
log: C:\Users\Marcel\CAMMP\CAMMPmodules\gps\Code\Master\MessCOMMENT             
format: u-blox                                              COMMENT             
                                                            MARKER NAME         
                                                            MARKER NUMBER       
                                                            OBSERVER / AGENCY   
                                                            REC # / TYPE / VERS 
                                                            ANT # / TYPE        
        0.0000        0.0000        0.0000                  APPROX POSITION XYZ 
        0.0000        0.0000        0.0000                  ANTENNA: DELTA H/E/N
     1     1                                                WAVELENGTH FACT L1/2
     3    C1    L1    S1                                    # / TYPES OF OBSERV 
  2013     7    18    12    11   35.0000000     GPS         TIME OF FIRST OBS   
  2013     7    18    12    24   26.0000000     GPS         TIME OF LAST OBS    
                                                            END OF HEADER       
 13  7 18 12 11 35.0000000  0  8G25G12G14G29G 2G24G 4G31
  20103450.179      195103.881          47.000  
  21000054.547      914757.9223         29.000  
  21944945.028      702776.7142         32.000  
  21681059.781     -469463.4703         26.000  
  22717609.102       82528.8953         31.000  
  23172076.081     1122890.8543         28.000  
  23165457.214      683562.3502         32.000  
  22936269.457     -478065.081          44.000  
 13  7 18 12 11 36.0000000  0  8G25G12G14G29G 2G24G 4G31
  20103569.189      195729.727          47.000  
  21000662.006      917953.3903         29.000  
  21945414.369      705244.5573         31.000  
  21680724.022     -471220.5363         26.000  
  22717651.331       82750.7352         31.000  
  23172962.570     1127552.8093         29.000  
  23165916.242      685956.4432         33.000  
  22935920.871     -479894.157          44.000  
 13  7 18 12 11 37.0000000  0  8G25G12G14G29G 2G24G 4G31
  20103689.212      196358.654          47.000  
  21001270.425      921151.8653         29.000  
  21945884.530      707715.6262         32.000  
  21680391.019     -472974.5183         27.000  
  22717694.521       82975.7892         31.000  
  23173850.297     1132217.7833         28.000  
  23166372.076      688353.428          32.000  
  22935573.734     -481720.348          44.000  
 13  7 18 12 11 38.0000000  0  8G25G12G14G29G 2G24G 4G31
  20103809.043      196988.879          47.000  
  21001878.653      924351.6243         29.000  
  21946354.639      710188.2642         31.000  
  21680057.511     -474727.0653         28.000  
  22717737.536       83202.2983         30.000  
  23174737.693     1136883.9803         28.000  
  23166828.504      690752.385          33.000  
  22935226.667     -483545.428          44.000  
 13  7 18 12 11 39.0000000  0  8G25G12G14G29G 2G24G 4G31
  20103928.838      197619.230          47.000  
  21002486.409      927551.3943         28.000  
  21946825.114      712661.2332         31.000  
  21679725.346     -476479.4583         28.000  
  22717780.638       83429.0133         30.000  
  23175626.537     1141550.0603         28.000  
  23167285.508      693151.785          33.000  
  22934879.512     -485370.576          44.000  
 13  7 18 12 11 40.0000000  0  8G25G12G14G29G 2G24G 4G31
  20104049.000      198250.857          47.000  
  21003091.757      930750.6983         27.000  
  21947295.659      715135.6052         31.000  
  21679391.767     -478230.8873         28.000  
  22717823.966       83657.2033         30.000  
  23176514.666     1146217.0173         28.000  
  23167742.826      695552.648          33.000  
  22934532.427     -487194.633          44.000  
 13  7 18 12 11 41.0000000  0  8G25G12G14G29G 2G24G 4G31
  20104170.524      198885.246          47.000  
  21003700.071      933954.1533         27.000  
  21947767.042      717613.0202         31.000  
  21679059.009     -479979.4373         27.000  
  22717867.662       83888.1403         30.000  
  23177401.661     1150886.7013         28.000  
  23168200.946      697956.566          33.000  
  22934186.127     -489016.114          44.000  
 13  7 18 12 11 42.0000000  0  8G25G12G14G29G 2G24G 4G31
  20104290.965      199522.607          47.000  
  21004310.201      937160.6493         27.000  
  21948239.123      720093.4712         31.000  
  21678726.199     -481724.9453         28.000  
  22717912.596       84122.4353         30.000  
  23178291.500     1155559.2423         28.000  
  23168659.294      700363.654          33.000  
  22933839.479     -490834.811          44.000  
 13  7 18 12 11 43.0000000  0  8G25G12G14G29G 2G24G 4G31
  20104411.878      200159.563          47.000  
  21004918.132      940366.5373         27.000  
  21948709.982      722573.8963         31.000  
  21678395.831     -483470.9333         29.000  
  22717957.740       84356.3353         30.000  
  23179180.623     1160231.1883         28.000  
  23169116.908      702770.575          33.000  
  22933493.179     -492654.102          44.000  
 13  7 18 12 11 44.0000000  0  8G25G12G14G29G 2G24G 4G31
  20104533.872      200796.240          47.000  
  21005531.367      943572.0013         27.000  
  21949181.452      725054.0932         31.000  
  21678069.687     -485217.0603         30.000  
  22718002.761       84590.0553         30.000  
  23180072.033     1164902.5903         28.000  
  23169574.976      705177.480          34.000  
  22933147.107     -494473.846          44.000  
 13  7 18 12 11 45.0000000  0  8G25G12G14G29G 2G24G 4G31
  20104654.820      201435.110          47.000  
  21006139.717      946779.5333         27.000  
  21949654.091      727536.6882         31.000  
  21677737.696     -486961.2643         30.000  
  22718047.434       84826.0783         29.000  
  23180961.261     1169575.9053         28.000  
  23170034.249      707586.772          34.000  
  22932801.226     -496291.618          44.000  
 13  7 18 12 11 46.0000000  0  8G25G12G14G29G 2G24G 4G31
  20104776.936      202076.437          47.000  
  21006750.474      949989.3603         27.000  
  21950127.202      730021.9632         31.000  
  21677406.683     -488703.0353         30.000  
  22718092.438       85064.7413         29.000  
  23181850.350     1174251.4553         28.000  
  23170493.399      709998.793          33.000  
  22932455.555     -498107.101          44.000  
 13  7 18 12 11 47.0000000  0  8G25G12G14G29G 2G24G 4G31
  20104899.053      202719.162          47.000  
  21007361.284      953200.6313         27.000  
  21950599.928      732508.7892         31.000  
  21677071.115     -490443.5313         31.000  
  22718137.669       85304.9773         29.000  
  23182738.060     1178928.4193         28.000  
  23170951.973      712412.446          32.000  
  22932110.791     -499921.384          44.000  
 13  7 18 12 11 48.0000000  0  8G25G12G14G29G 2G24G 4G31
  20105021.431      203361.311          47.000  
  21007971.832      956411.1703         27.000  
  21951072.881      734995.2782         31.000  
  21676747.815     -492184.5382         31.000  
  22718183.598       85544.7583         29.000  
  23183627.096     1183604.5533         28.000  
  23171411.908      714825.761          32.000  
  22931765.172     -501736.408          44.000  
 13  7 18 12 11 49.0000000  0  8G25G12G14G29G 2G24G 4G31
  20105143.967      204003.980          47.000  
  21008581.491      959621.9233         27.000  
  21951546.724      737482.4303         31.000  
  21676412.300     -493925.0982         31.000  
  22718228.759       85785.1213         30.000  
  23184517.214     1188280.7783         28.000  
  23171870.989      717239.807          33.000  
  22931420.041     -503551.124          44.000  
 13  7 18 12 11 50.0000000  0  8G25G12G14G29G 2G24G 4G31
  20105266.537      204648.961          47.000  
  21009192.493      962834.9863         27.000  
  21952020.463      739972.1442         31.000  
  21676081.566     -495663.3882         30.000  
  22718274.583       86027.9663         29.000  
  23185406.878     1192959.2883         28.000  
  23172331.256      719656.470          33.000  
  22931074.544     -505363.700          44.000  
 13  7 18 12 11 51.0000000  0  8G25G12G14G29G 2G24G 4G31
  20105389.770      205296.420          47.000  
  21009806.897      966050.5713         28.000  
  21952494.847      742464.4913         31.000  
  21675752.123     -497399.1382         31.000  
  22718321.594       86273.2853         29.000  
  23186295.740     1197640.1733         28.000  
  23172792.029      722075.791          34.000  
  22930729.431     -507174.003          44.000  
 13  7 18 12 11 52.0000000  0  8G25G12G14G29G 2G24G 4G31
  20105512.952      205943.773          47.000  
  21010419.330      969265.7813         28.000  
  21952968.778      744956.9352         31.000  
  21675422.279     -499135.1643         31.000  
  22718369.146       86518.8553         29.000  
  23187187.499     1202320.6913         28.000  
  23173252.906      724495.165          33.000  
  22930385.714     -508984.642          44.000  
 13  7 18 12 11 53.0000000  0  8G25G12G14G29G 2G24G 4G31
  20105635.417      206590.371          47.000  
  21011032.653      972480.2193         29.000  
  21953443.354      747448.7923         31.000  
  21675092.418     -500871.8932         31.000  
  22718414.569       86763.6223         28.000  
  23188079.589     1207000.2783         27.000  
  23173712.999      726914.160          33.000  
  22930040.985     -510796.169          44.000  
 13  7 18 12 11 54.0000000  0  8G25G12G14G29G 2G24G 4G31
  20105759.331      207239.275          47.000  
  21011644.213      975696.7573         29.000  
  21953918.104      749943.1933         32.000  
  21674762.417     -502606.3492         31.000  
  22718460.952       87010.9233         28.000  
  23188967.107     1211681.7953         27.000  
  23174174.121      729335.612          32.000  
  22929696.675     -512605.583          45.000  
 13  7 18 12 11 55.0000000  0  7G25G12G14G29G 2G 4G31
  20105882.757      207890.961          47.000  
  21012257.606      978915.8743         29.000  
  21954392.628      752440.4832         31.000  
  21674433.724     -504338.1072         31.000  
  22718508.050       87259.6293         27.000  
  23174635.505      731760.106          31.000  
  22929353.010     -514412.388          45.000  
 13  7 18 12 11 56.0000000  0  7G25G12G14G29G 2G 4G31
  20106007.054      208544.283          46.000  
  21012872.464      982136.8193         29.000  
  21954868.583      754939.7332         32.000  
  21674105.137     -506068.1352         32.000  
  22718558.882       87511.6873         28.000  
  23175097.011      734186.550          32.000  
  22929008.927     -516217.744          45.000  
 13  7 18 12 11 57.0000000  0  7G25G12G14G29G 2G 4G31
  20106131.684      209197.471          46.000  
  21013486.380      985357.3943         29.000  
  21955344.206      757439.0212         32.000  
  21673775.746     -507798.4332         31.000  
  22718606.452       87763.6273         29.000  
  23175559.372      736613.012          32.000  
  22928665.332     -518023.441          45.000  
 13  7 18 12 11 58.0000000  0  7G25G12G14G29G 2G 4G31
  20106255.860      209850.776          46.000  
  21014098.307      988577.7673         29.000  
  21955820.335      759938.5662         33.000  
  21673446.496     -509528.6203         30.000  
  22718651.421       88015.7233         29.000  
  23176021.837      739040.3473         31.000  
  22928321.999     -519829.189          45.000  
 13  7 18 12 11 59.0000000  0  7G25G12G14G29G 2G 4G31
  20106381.187      210506.410          46.000  
  21014711.403      991800.5623         29.000  
  21956296.203      762440.6532         32.000  
  21673116.407     -511256.5143         30.000  
  22718693.075       88270.5583         29.000  
  23176484.111      741469.8082         31.000  
  22927978.753     -521632.799          45.000  
 13  7 18 12 12  0.0000000  0  7G25G12G14G29G 2G 4G31
  20106506.078      211164.760          46.000  
  21015327.413      995025.9173         29.000  
  21956773.117      764945.6572         33.000  
  21672787.733     -512981.6683         30.000  
  22718746.315       88528.1492         30.000  
  23176946.769      743902.1672         32.000  
  22927636.101     -523433.879          45.000  
 13  7 18 12 12  1.0000000  0  7G25G12G14G29G 2G 4G31
  20106630.813      211822.959          46.000  
  21015938.991      998251.1133         29.000  
  21957250.712      767450.710          33.000  
  21672460.052     -514707.0992         31.000  
  22718798.055       88785.5943         28.000  
  23177410.194      746334.6412         32.000  
  22927292.663     -525235.295          45.000  
 13  7 18 12 12  2.0000000  0  7G25G12G14G29G 2G 4G31
  20106756.018      212480.656          46.000  
  21016552.890     1001475.5263         29.000  
  21957727.958      769955.450          33.000  
  21672132.110     -516433.0073         31.000  
  22718841.541       89042.8393         28.000  
  23177873.619      748766.8393         32.000  
  22926949.889     -527037.418          45.000  
 13  7 18 12 12  3.0000000  0  8G25G12G14G29G 2G24G 4G31
  20106882.183      213139.922          46.000  
  21017166.282     1004701.3863         30.000  
  21958205.099      772461.961          33.000  
  21671803.942     -518157.3962         30.000  
  22718891.763       89301.7093         29.000  
  23196993.038     1253868.1663         28.000  
  23178336.609      751200.8513         31.000  
  22926607.655     -528838.129          45.000  
 13  7 18 12 12  4.0000000  0  7G25G12G14G29G 2G 4G31
  20107007.615      213801.618          46.000  
  21017786.725     1007929.3643         31.000  
  21958682.502      774971.045          33.000  
  21671476.209     -519879.3313         30.000  
  22718939.454       89563.1883         27.000  
  23178800.767      753637.5242         32.000  
  22926266.084     -530636.610          45.000  
 13  7 18 12 12  5.0000000  0  7G25G12G14G29G 2G 4G31
  20107133.710      214463.995          46.000  
  21018394.394     1011158.1333         30.000  
  21959160.569      777481.013          33.000  
  21671148.372     -521600.6463         30.000  
  22718992.084       89825.3673         27.000  
  23179265.484      756075.1012         33.000  
  22925923.554     -532434.598          45.000  
 13  7 18 12 12  6.0000000  0  7G25G12G14G29G 2G 4G31
  20107259.492      215125.500          46.000  
  21019010.648     1014386.0193         31.000  
  21959638.460      779990.309          33.000  
  21670820.901     -523322.8452         31.000  
  22719046.180       90086.9613         29.000  
  23179729.939      758512.0172         32.000  
  22925581.635     -534233.641          45.000  
 13  7 18 12 12  7.0000000  0  7G25G12G14G29G 2G 4G31
  20107385.377      215787.068          46.000  
  21019622.662     1017613.9063         30.000  
  21960115.706      782499.9023         33.000  
  21670493.064     -525045.0523         30.000  
  22719094.447       90348.4743         29.000  
  23180193.905      760949.2592         31.000  
  22925239.418     -536032.809          45.000  
 13  7 18 12 12  8.0000000  0  7G25G12G14G29G 2G 4G31
  20107511.508      216450.231          46.000  
  21020239.545     1020843.0033         30.000  
  21960593.842      785011.2152         34.000  
  21670164.319     -526765.5842         29.000  
  22719145.908       90611.9193         28.000  
  23180657.505      763388.3503         30.000  
  22924897.464     -537830.587          45.000  
 13  7 18 12 12  9.0000000  0  7G25G12G14G29G 2G 4G31
  20107638.179      217114.421          46.000  
  21020853.095     1024073.1723         30.000  
  21961071.943      787523.8062         33.000  
  21669837.389     -528485.2973         30.000  
  22719194.315       90876.6483         28.000  
  23181120.581      765828.7443         28.000  
  22924555.352     -539627.500          45.000  
 13  7 18 12 12 10.0000000  0  7G25G12G14G29G 2G 4G31
  20107764.169      217776.620          46.000  
  21021467.220     1027301.1373         30.000  
  21961549.730      790034.5392         33.000  
  21669510.076     -530206.9053         29.000  
  22719243.542       91139.4193         27.000  
  23181584.024      768267.3083         28.000  
  22924213.555     -541426.594          45.000  
 13  7 18 12 12 11.0000000  0  7G25G12G14G29G 2G 4G31
  20107889.409      218437.344          46.000  
  21022081.852     1030527.6733         31.000  
  21962027.727      792544.0413         33.000  
  21669182.186     -531930.1423         30.000  
  22719296.939       91400.7243         29.000  
  23182047.502      770704.6223         30.000  
  22923870.658     -543227.361          45.000  
 13  7 18 12 12 12.0000000  0  7G25G12G14G29G 2G 4G31
  20108016.046      219100.172          46.000  
  21022695.820     1033756.0893         30.000  
  21962505.531      795055.8382         33.000  
  21668854.506     -533651.1223         29.000  
  22719349.011       91664.3583         28.000  
  23182511.050      773144.3302         29.000  
  22923527.046     -545026.201          45.000  
 13  7 18 12 12 13.0000000  0  7G25G12G14G29G 2G 4G31
  20108142.333      219764.719          46.000  
  21023310.679     1036986.1792         31.000  
  21962983.388      797569.5052         33.000  
  21668527.244     -535370.6553         29.000  
  22719401.536       91929.7223         29.000  
  23182971.735      775586.1083         27.000  
  22923185.126     -546823.517          45.000  
 13  7 18 12 12 14.0000000  0  7G25G12G14G29G 2G 4G31
  20108268.236      220429.170          46.000  
  21023925.362     1040216.0223         31.000  
  21963461.297      800083.2772         33.000  
  21668199.878     -537090.0763         29.000  
  22719454.707       92195.4693         29.000  
  23183431.182      778028.0463         27.000  
  22922843.207     -548621.112          45.000  
 13  7 18 12 12 15.0000000  0  7G25G12G14G29G 2G 4G31
  20108394.733      221091.671          46.000  
  21024539.662     1043443.7993         31.000  
  21963939.747      802595.3472         33.000  
  21667872.652     -538811.5923         30.000  
  22719505.522       92459.1053         30.000  
  23183891.711      780468.1433         28.000  
  22922500.502     -550420.814          45.000  
 13  7 18 12 12 16.0000000  0  7G25G12G14G29G 2G 4G31
  20108520.270      221753.421          46.000  
  21025153.299     1046670.7402         30.000  
  21964417.324      805106.8182         34.000  
  21667546.088     -540533.9103         30.000  
  22719556.860       92722.1382         32.000  
  23184353.862      782907.5323         27.000  
  22922157.972     -552221.483          45.000  
 13  7 18 12 12 17.0000000  0  7G25G12G14G29G 2G 4G31
  20108646.662      222416.439          46.000  
  21025768.402     1049898.7722         32.000  
  21964896.071      807619.7602         34.000  
  21667218.845     -542254.8933         30.000  
  22719609.508       92986.6062         32.000  
  23184817.131      785348.5633         27.000  
  22921815.982     -554021.063          45.000  
 13  7 18 12 12 18.0000000  0  7G25G12G14G29G 2G 4G31
  20108773.211      223080.300          46.000  
  21026383.191     1053127.5903         31.000  
  21965374.190      810133.6602         34.000  
  21666892.194     -543975.1652         30.000  
  22719663.743       93251.9972         32.000  
  23185282.563      787790.7743         27.000  
  22921473.539     -555819.985          45.000  
 13  7 18 12 12 19.0000000  0  7G25G12G14G29G 2G 4G31
  20108899.323      223742.994          46.000  
  21026997.578     1056355.0982         32.000  
  21965852.448      812646.671          34.000  
  21666565.020     -545696.6173         30.000  
  22719713.249       93516.4812         32.000  
  23185745.779      790232.0543         26.000  
  22921130.468     -557620.267          45.000  
 13  7 18 12 12 20.0000000  0  7G25G12G14G29G 2G 4G31
  20109025.628      224405.044          46.000  
  21027612.698     1059581.8483         32.000  
  21966330.148      815159.213          34.000  
  21666237.060     -547418.6513         28.000  
  22719757.224       93780.3282         32.000  
  23186206.727      792672.7883         25.000  
  22920787.658     -559421.371          45.000  
 13  7 18 12 12 21.0000000  0  7G25G12G14G29G 2G 4G31
  20109151.200      225068.978          46.000  
  21028226.562     1062810.3382         31.000  
  21966808.685      817673.821          34.000  
  21665910.305     -549138.9423         28.000  
  22719808.266       94046.2922         33.000  
  23186663.957      795110.1703         23.000  
  22920445.285     -561220.777          45.000  
 13  7 18 12 12 22.0000000  0  6G25G12G14G29G 2G31
  20109277.470      225734.580          46.000  
  21028841.002     1066040.3652         31.000  
  21967287.624      820190.276          34.000  
  21665583.515     -550857.4693         27.000  
  22719858.034       94314.0112         32.000  
  22920103.191     -563018.701          45.000  
 13  7 18 12 12 23.0000000  0  6G25G12G14G29G 2G31
  20109404.455      226400.326          46.000  
  21029455.232     1069270.4942         31.000  
  21967766.039      822707.032          34.000  
  21665256.568     -552575.9413         27.000  
  22719909.041       94582.0332         32.000  
  22919760.539     -564816.680          45.000  
 13  7 18 12 12 24.0000000  0  7G25G12G14G29G 2G 4G31
  20109531.545      227064.882          46.000  
  21030069.724     1072499.3333         31.000  
  21968244.559      825222.859          34.000  
  21664929.376     -554295.6893         26.000  
  22719960.327       94848.9672         32.000  
  23188058.387      802442.9543         23.000  
  22919418.322     -566616.007          45.000  
 13  7 18 12 12 25.0000000  0  7G25G12G14G29G 2G 4G31
  20109658.600      227730.845          46.000  
  21030684.094     1075729.3922         31.000  
  21968724.038      827740.256          34.000  
  21664602.411     -556014.1623         27.000  
  22720011.055       95116.996          32.000  
  23188524.709      804887.1833         23.000  
  22919076.263     -568414.149          45.000  
 13  7 18 12 12 26.0000000  0  6G25G12G14G29G 2G31
  20109785.777      228398.200          46.000  
  21031299.371     1078960.7762         31.000  
  21969203.849      830259.244          34.000  
  21664277.087     -557731.0223         28.000  
  22720062.480       95387.4563         32.000  
  22918734.902     -570211.062          45.000  
 13  7 18 12 12 27.0000000  0  7G25G12G14G29G 2G 4G31
  20109912.413      229064.325          46.000  
  21031914.648     1082190.7463         31.000  
  21969683.416      832777.197          34.000  
  21663949.878     -559449.2633         28.000  
  22720114.499       95656.4022         33.000  
  23189456.097      809781.9143         23.000  
  22918392.913     -572009.380          45.000  
 13  7 18 12 12 28.0000000  0  7G25G12G14G29G 2G 4G31
  20110039.067      229730.104          46.000  
  21032528.512     1085420.3933         30.000  
  21970162.582      835294.994          34.000  
  21663621.726     -561166.8523         26.000  
  22720165.873       95925.1542         34.000  
  23189925.263      812228.7603         25.000  
  22918050.557     -573808.238          45.000  
 13  7 18 12 12 29.0000000  0  7G25G12G14G29G 2G 4G31
  20110165.808      230397.942          46.000  
  21033142.725     1088651.8493         30.000  
  21970641.695      837815.050          34.000  
  21663295.861     -562883.9513         26.000  
  22720217.508       96196.0342         33.000  
  23190392.842      814677.4263         26.000  
  22917708.969     -575605.234          45.000  
 13  7 18 12 12 30.0000000  0  7G25G12G14G29G 2G 4G31
  20110292.985      231068.733          46.000  
  21033757.723     1091886.2323         30.000  
  21971121.820      840338.192          34.000  
  21662967.308     -564597.7713         26.000  
  22720269.335       96470.0082         33.000  
  23190861.555      817129.3013         26.000  
  22917367.102     -577399.446          45.000  
 13  7 18 12 12 31.0000000  0  7G25G12G14G29G 2G 4G31
  20110421.628      231741.495          46.000  
  21034373.802     1095122.4383         31.000  
  21971601.788      842863.559          34.000  
  21662644.602     -566309.4083         26.000  
  22720321.145       96746.0962         33.000  
  23191328.715      819583.5383         26.000  
  22917025.932     -579191.870          45.000  
 13  7 18 12 12 32.0000000  0  7G25G12G14G29G 2G 4G31
  20110548.962      232413.459          46.000  
  21034988.870     1098357.7043         30.000  
  21972082.559      845388.267          34.000  
  21662316.101     -568021.8493         26.000  
  22720373.932       97021.5122         32.000  
  23191796.799      822037.2003         27.000  
  22916684.868     -580985.303          45.000  
 13  7 18 12 12 33.0000000  0  7G25G12G14G29G 2G 4G31
  20110677.344      233084.850          46.000  
  21035604.950     1101592.2903         31.000  
  21972562.912      847912.595          34.000  
  21661989.293     -569734.9553         25.000  
  22720426.230       97296.4792         33.000  
  23192263.575      824490.3643         26.000  
  22916343.228     -582779.463          45.000  
 13  7 18 12 12 34.0000000  0  7G25G12G14G29G 2G 4G31
  20110805.568      233758.755          46.000  
  21036220.873     1104829.2732         31.000  
  21973042.723      850439.670          34.000  
  21661663.812     -571445.5353         25.000  
  22720478.633       97574.1212         33.000  
  23192728.815      826946.2843         27.000  
  22916001.988     -584571.303          45.000  
 13  7 18 12 12 35.0000000  0  7G25G12G14G29G 2G 4G31
  20110934.804      234435.501          46.000  
  21036837.773     1108068.9673         30.000  
  21973524.331      852969.714          34.000  
  21661339.814     -573154.0623         26.000  
  22720532.048       97854.7452         32.000  
  23193200.163      829405.2953         27.000  
  22915661.587     -586360.491          45.000  
 13  7 18 12 12 36.0000000  0  7G25G12G14G29G 2G 4G31
  20111063.360      235112.285          46.000  
  21037454.586     1111308.6802         31.000  
  21974006.045      855500.001          34.000  
  21661014.297     -574861.9133         26.000  
  22720585.010       98135.5512         32.000  
  23193669.452      831864.7743         27.000  
  22915321.064     -588149.818          45.000  
 13  7 18 12 12 37.0000000  0  7G25G12G14G29G 2G 4G31
  20111191.567      235788.711          46.000  
  21038070.823     1114547.8003         31.000  
  21974487.950      858030.179          34.000  
  21660689.444     -576570.0513         26.000  
  22720638.198       98415.580          32.000  
  23194136.140      834323.9883         28.000  
  22914979.964     -589939.696          45.000  
 13  7 18 12 12 38.0000000  0  7G25G12G14G29G 2G 4G31
  20111320.977      236465.733          46.000  
  21038687.671     1117787.3983         31.000  
  21974970.239      860561.093          34.000  
  21660366.545     -578278.0303         27.000  
  22720691.299       98696.874          32.000  
  23194606.371      836783.7993         28.000  
  22914639.545     -591729.162          45.000  
 13  7 18 12 12 39.0000000  0  7G25G12G14G29G 2G 4G31
  20111450.423      237145.276          46.000  
  21039304.466     1121029.5162         31.000  
  21975452.580      863094.737          34.000  
  21660043.961     -579983.3213         27.000  
  22720745.395       98980.821          32.000  
  23195076.358      839246.5763         29.000  
  22914299.371     -593516.291          45.000  
 13  7 18 12 12 40.0000000  0  7G25G12G14G29G 2G 4G31
  20111580.148      237827.811          46.000  
  21039921.750     1124274.4213         30.000  
  21975935.184      865631.544          34.000  
  21659721.969     -581685.3303         27.000  
  22720799.682       99267.872          32.000  
  23195549.678      841712.7123         30.000  
  22913959.249     -595300.631          45.000  
 13  7 18 12 12 41.0000000  0  7G25G12G14G29G 2G 4G31
  20111709.576      238509.317          46.000  
  21040539.593     1127518.2492         31.000  
  21976417.787      868167.549          34.000  
  21659397.866     -583388.4663         27.000  
  22720853.272       99554.056          31.000  
  23196016.052      844177.9493         31.000  
  22913619.877     -597086.165          45.000  
 13  7 18 12 12 42.0000000  0  7G25G12G14G29G 2G 4G31
  20111839.476      239189.232          46.000  
  21041156.388     1130760.2513         31.000  
  21976900.460      870702.128          34.000  
  21659074.706     -585093.3903         26.000  
  22720907.402       99838.763          31.000  
  23196487.924      846641.8082         31.000  
  22913279.545     -598873.489          45.000  
 13  7 18 12 12 43.0000000  0  7G25G12G14G29G 2G 4G31
  20111968.921      239870.667          46.000  
  21041773.986     1134003.7233         31.000  
  21977383.552      873238.420          33.000  
  21658747.968     -586796.9383         25.000  
  22720962.126      100125.6863         31.000  
  23196958.085      849107.4032         31.000  
  22912939.563     -600659.477          45.000  
 13  7 18 12 12 44.0000000  0  7G25G12G14G29G 2G 4G31
  20112098.646      240554.581          46.000  
  21042391.637     1137249.5663         31.000  
  21977866.504      875777.396          34.000  
  21658424.633     -588497.9423         25.000  
  22721017.618      100414.6382         31.000  
  23197423.988      851575.7612         32.000  
  22912600.557     -602443.166          45.000  
 13  7 18 12 12 45.0000000  0  7G25G12G14G29G 2G 4G31
  20112229.348      241238.082          46.000  
  21043009.427     1140494.9542         31.000  
  21978349.299      878316.125          33.000  
  21658098.645     -590199.2983         25.000  
  22721072.865      100703.3172         31.000  
  23197896.121      854043.8462         32.000  
  22912260.993     -604227.447          45.000  
 13  7 18 12 12 46.0000000  0  7G25G12G14G29G 2G 4G31
  20112359.265      241920.935          46.000  
  21043627.217     1143739.4553         31.000  
  21978831.658      880854.434          33.000  
  21657771.558     -591901.1953         24.000  
  22721127.485      100991.5492         30.000  
  23198365.637      856511.5782         32.000  
  22911921.430     -606012.581          45.000  
 13  7 18 12 12 47.0000000  0  7G25G12G14G29G 2G 4G31
  20112489.374      242605.140          46.000  
  21044244.920     1146985.2702         30.000  
  21979314.628      883394.231          33.000  
  21657446.269     -593601.8893         23.000  
  22721182.453      101281.2602         30.000  
  23198834.402      858980.9032         32.000  
  22911581.901     -607796.504          45.000  
 13  7 18 12 12 48.0000000  0  6G25G12G14G 2G 4G31
  20112619.902      243292.044          46.000  
  21044863.163     1150233.5823         30.000  
  21979798.243      885936.936          33.000  
  22721237.526      101573.7422         31.000  
  23199304.965      861453.1872         32.000  
  22911242.599     -609577.934          45.000  
 13  7 18 12 12 49.0000000  0  6G25G12G14G 2G 4G31
  20112750.569      243979.881          46.000  
  21045481.599     1153482.8363         30.000  
  21980282.539      888480.763          33.000  
  22721292.494      101867.3953         30.000  
  23199775.335      863926.5903         32.000  
  22910903.454     -611358.615          45.000  
 13  7 18 12 12 50.0000000  0  6G25G12G14G 2G 4G31
  20112881.864      244666.944          46.000  
  21046099.284     1156731.1873         30.000  
  21980766.329      891024.054          33.000  
  22721348.666      102160.3643         30.000  
  23200246.090      866399.5102         32.000  
  22910564.134     -613140.225          45.000  
 13  7 18 12 12 51.0000000  0  6G25G12G14G 2G 4G31
  20113012.375      245353.875          46.000  
  21046717.738     1159979.0753         29.000  
  21981250.834      893567.345          33.000  
  22721404.228      102453.2652         30.000  
  23200716.897      868872.4873         32.000  
  22910225.268     -614922.184          45.000  
 13  7 18 12 12 52.0000000  0  6G25G12G14G 2G 4G31
  20113142.937      246042.848          46.000  
  21047335.266     1163229.0563         29.000  
  21981735.479      896112.902          33.000  
  22721460.714      102748.4443         30.000  
  23201188.646      871347.7072         32.000  
  22909887.066     -616702.262          45.000  
 13  7 18 12 12 53.0000000  0  6G25G12G14G 2G 4G31
  20113274.686      246733.843          46.000  
  21047954.365     1166481.0873         28.000  
  21982220.246      898660.663          33.000  
  22721517.061      103045.6973         30.000  
  23201660.447      873825.2302         33.000  
  22909548.723     -618480.500          45.000  
 13  7 18 12 12 54.0000000  0  6G25G12G14G 2G 4G31
  20113405.842      247424.602          46.000  
  21048572.957     1169732.6513         28.000  
  21982704.367      901208.383          33.000  
  22721573.355      103342.9153         29.000  
  23202131.795      876302.7402         32.000  
  22909210.032     -620259.180          45.000  
 13  7 18 12 12 55.0000000  0  6G25G12G14G 2G 4G31
  20113537.312      248115.019          46.000  
  21049192.719     1172983.8003         27.000  
  21983189.379      903755.896          33.000  
  22721629.632      103639.9023         30.000  
  23202603.091      878780.1602         32.000  
  22908871.097     -622038.374          45.000  
 13  7 18 12 12 56.0000000  0  7G25G12G14G29G 2G 4G31
  20113669.236      248808.207          46.000  
  21049812.499     1176237.5163         27.000  
  21983674.093      906306.420          33.000  
  21654538.853     -608869.8823         23.000  
  22721686.049      103939.6743         28.000  
  23203075.346      881260.5322         32.000  
  22908532.964     -623814.980          45.000  
 13  7 18 12 12 57.0000000  0  7G25G12G14G29G 2G 4G31
  20113801.735      249503.722          46.000  
  21050433.569     1179493.5263         27.000  
  21984160.536      908859.411          32.000  
  21654218.659     -610558.1323         24.000  
  22721743.373      104241.9943         29.000  
  23203547.846      883743.5712         32.000  
  22908195.250     -625589.451          45.000  
 13  7 18 12 12 58.0000000  0  7G25G12G14G29G 2G 4G31
  20113933.589      250199.197          46.000  
  21051051.447     1182748.2803         27.000  
  21984645.390      911412.601          33.000  
  21653894.905     -612247.1893         25.000  
  22721801.080      104544.5583         29.000  
  23204020.659      886226.7342         32.000  
  22907857.291     -627364.141          45.000  
 13  7 18 12 12 59.0000000  0  7G25G12G14G29G 2G 4G31
  20114066.193      250894.006          45.000  
  21051669.464     1186002.9823         26.000  
  21985131.623      913965.344          33.000  
  21653575.915     -613935.9543         26.000  
  22721858.527      104846.4993         29.000  
  23204493.961      888709.4362         33.000  
  22907519.298     -629139.680          45.000  
 13  7 18 12 13  0.0000000  0  7G25G12G14G29G 2G 4G31
  20114198.082      251590.589          45.000  
  21052290.622     1189259.5453         26.000  
  21985617.489      916520.010          33.000  
  21653256.000     -615623.9033         25.000  
  22721916.025      105150.2853         29.000  
  23204966.985      891194.2102         32.000  
  22907182.195     -630913.612          45.000  
 13  7 18 12 13  1.0000000  0  7G25G12G14G29G 2G 4G31
  20114330.756      252290.187          45.000  
  21052911.204     1192519.0213         26.000  
  21986103.879      919077.881          32.000  
  21652934.375     -617309.7913         23.000  
  22721975.164      105457.1843         30.000  
  23205440.828      893682.139          32.000  
  22906845.318     -632684.728          45.000  
 13  7 18 12 13  2.0000000  0  7G25G12G14G29G 2G 4G31
  20114464.686      252991.651          45.000  
  21053534.019     1195780.3263         26.000  
  21986591.194      921637.745          33.000  
  21652612.227     -618991.2243         22.000  
  22722034.198      105766.2483         29.000  
  23205914.950      896172.260          33.000  
  22906508.163     -634454.160          45.000  
 13  7 18 12 13  3.0000000  0  7G25G12G14G29G 2G 4G31
  20114598.914      253693.737          45.000  
  21054155.526     1199042.2553         26.000  
  21987079.050      924198.534          33.000  
  21652291.352     -620673.8023         23.000  
  22722093.424      106075.9843         29.000  
  23206389.038      898663.221          33.000  
  22906172.002     -636223.161          45.000  
 13  7 18 12 13  4.0000000  0  7G25G12G14G29G 2G 4G31
  20114732.477      254396.860          45.000  
  21054775.131     1202304.8953         25.000  
  21987566.347      926760.450          32.000  
  21651974.648     -622356.3393         25.000  
  22722152.633      106386.9503         28.000  
  23206863.090      901155.444          32.000  
  22905835.352     -637991.283          45.000  
 13  7 18 12 13  5.0000000  0  7G25G12G14G29G 2G 4G31
  20114866.076      255102.570          45.000  
  21055393.759     1205566.0583         24.000  
  21988054.936      929325.241          32.000  
  21651657.613     -624036.7993         27.000  
  22722212.365      106700.4903         28.000  
  23207337.876      903650.445          32.000  
  22905499.523     -639757.010          45.000  
 13  7 18 12 13  6.0000000  0  7G25G12G14G29G 2G 4G31
  20115000.949      255810.758          45.000  
  21056016.906     1208836.1863         24.000  
  21988542.966      931892.6183         32.000  
  21651340.263     -625714.0973         28.000  
  22722272.463      107017.5793         27.000  
  23207813.796      906148.2253         31.000  
  22905163.676     -641520.440          45.000  
 13  7 18 12 13  7.0000000  0  7G25G12G14G29G 2G 4G31
  20115135.612      256520.182          45.000  
  21056635.290     1212104.2843         23.000  
  21989031.153      934461.4202         32.000  
  21651026.700     -627390.1743         29.000  
  22722332.492      107335.1163         28.000  
  23208289.017      908647.4902         29.000  
  22904828.038     -643282.830          45.000  
 13  7 18 12 13  8.0000000  0  7G25G12G14G29G 2G 4G31
  20115270.520      257229.645          45.000  
  21057259.781     1215377.2723         23.000  
  21989520.353      937030.4772         31.000  
  21650706.838     -629066.4033         28.000  
  22722393.463      107651.0983         27.000  
  23208764.972      911146.9003         30.000  
  22904492.331     -645045.370          45.000  
 13  7 18 12 13  9.0000000  0  6G25G14G29G 2G 4G31
  20115406.283      257942.041          45.000  
  21990009.395      939602.6282         32.000  
  21650385.911     -630739.5023         28.000  
  22722453.125      107971.9433         26.000  
  23209242.096      913649.6223         31.000  
  22904158.072     -646805.138          45.000  
 13  7 18 12 13 10.0000000  0  6G25G14G29G 2G 4G31
  20115542.604      258658.094          45.000  
  21990498.856      942178.6822         31.000  
  21650067.776     -632409.0873         29.000  
  22722514.149      108296.4763         27.000  
  23209720.319      916156.2633         31.000  
  22903823.831     -648561.440          45.000  
 13  7 18 12 13 11.0000000  0  6G25G14G29G 2G 4G31
  20115678.489      259373.977          45.000  
  21990988.527      944754.7702         31.000  
  21649748.001     -634078.8003         28.000  
  22722575.207      108621.2103         26.000  
  23210197.844      918662.8372         32.000  
  22903489.938     -650318.103          45.000  
 13  7 18 12 13 12.0000000  0  6G25G14G29G 2G 4G31
  20115814.897      260092.016          45.000  
  21991478.913      947333.1202         31.000  
  21649429.342     -635746.5423         28.000  
  22722636.911      108947.9503         26.000  
  23210676.678      921171.8562         33.000  
  22903155.470     -652072.793          45.000  
 13  7 18 12 13 13.0000000  0  7G25G14G29G 2G24G 4G31
  20115951.794      260814.448          45.000  
  21991970.503      949916.0323         31.000  
  21649112.184     -637409.8423         28.000  
  22722702.873      109279.3463         27.000  
  23259635.986     1583133.8173         27.000  
  23211156.437      923685.4673         32.000  
  22902822.118     -653823.284          45.000  
 13  7 18 12 13 14.0000000  0  7G25G14G29G 2G24G 4G31
  20116089.773      261539.348          45.000  
  21992462.599      952501.6592         31.000  
  21648798.220     -639070.5013         28.000  
  22722766.688      109613.5293         26.000  
  23260539.943     1587875.6143         27.000  
  23211636.475      926201.7932         32.000  
  22902489.203     -655571.471          45.000  
 13  7 18 12 13 15.0000000  0  7G25G14G29G 2G24G 4G31
  20116228.607      262266.891          45.000  
  21992955.358      955090.1063         31.000  
  21648482.406     -640728.8513         28.000  
  22722830.120      109950.1913         27.000  
  23261440.461     1592619.5093         27.000  
  23212117.246      928721.0602         32.000  
  22902157.282     -657317.179          45.000  
 13  7 18 12 13 16.0000000  0  7G25G14G29G 2G24G 4G31
  20116367.371      262996.386          45.000  
  21993447.856      957680.7372         31.000  
  21648169.053     -642384.9913         29.000  
  22722893.743      110289.2643         25.000  
  23262342.306     1597365.3923         27.000  
  23212598.663      931242.2983         30.000  
  22901825.170     -659061.120          45.000  
 13  7 18 12 13 17.0000000  0  7G25G14G29G 2G24G 4G31
  20116506.187      263725.294          45.000  
  21993939.865      960270.8102         31.000  
  21647852.645     -644041.8963         29.000  
  22722956.163      110627.4603         25.000  
  23263245.424     1602110.4003         27.000  
  23213080.533      933763.4253         29.000  
  22901493.145     -660805.843          45.000  
 13  7 18 12 13 18.0000000  0  7G25G14G29G 2G24G 4G31
  20116645.039      264455.909          45.000  
  21994432.554      962862.9322         31.000  
  21647537.058     -645697.1803         28.000  
  22723020.135      110968.4623         25.000  
  23264149.276     1606856.8253         27.000  
  23213560.152      936286.4813         30.000  
  22901160.910     -662549.033          45.000  
 13  7 18 12 13 19.0000000  0  7G25G14G29G 2G24G 4G31
  20116784.361      265188.109          45.000  
  21994925.610      965456.7953         31.000  
  21647222.186     -647350.7763         29.000  
  22723085.504      111310.7723         24.000  
  23265055.064     1611604.8173         27.000  
  23214039.423      938811.2823         29.000  
  22900830.211     -664290.806          45.000  
 13  7 18 12 13 20.0000000  0  7G25G14G29G 2G24G 4G31
  20116923.649      265920.641          45.000  
  21995420.167      968051.1053         31.000  
  21646909.164     -649004.0453         29.000  
  22723146.667      111649.3873         23.000  
  23265960.259     1616352.8043         27.000  
  23214521.258      941336.6133         29.000  
  22900498.465     -666032.431          45.000  
 13  7 18 12 13 21.0000000  0  7G25G14G29G 2G24G 4G31
  20117062.518      266652.859          45.000  
  21995913.589      970645.3542         31.000  
  21646595.514     -650657.8443         30.000  
  22723212.384      111992.6143         23.000  
  23266865.891     1621100.2543         27.000  
  23215003.006      943861.7353         28.000  
  22900167.172     -667774.543          45.000  
 13  7 18 12 13 22.0000000  0  7G25G14G29G 2G24G 4G31
  20117202.503      267387.459          45.000  
  21996407.779      973242.1712         31.000  
  21646286.471     -652308.9833         30.000  
  22723277.334      112338.5983         22.000  
  23267773.337     1625849.8623         28.000  
  23215485.051      946389.6253         28.000  
  22899835.985     -669514.469          45.000  
 13  7 18 12 13 23.0000000  0  7G25G14G29G 2G24G 4G31
  20117343.222      268126.168          45.000  
  21996903.330      975843.3122         32.000  
  21645970.639     -653956.2713         30.000  
  22723342.650      112687.0933         22.000  
  23268679.440     1630603.3493         27.000  
  23215969.504      948921.8093         27.000  
  22899505.478     -671250.462          45.000  
 13  7 18 12 13 24.0000000  0  6G25G14G29G24G 4G31
  20117483.574      268866.339          44.000  
  21997398.637      978446.0672         32.000  
  21645661.212     -655602.0872         31.000  
  23269586.066     1635358.2683         27.000  
  23216452.613      951455.8553         29.000  
  22899175.948     -672985.167          45.000  
 13  7 18 12 13 25.0000000  0  6G25G14G29G24G 4G31
  20117624.589      269607.284          44.000  
  21997894.712      981049.8052         32.000  
  21645342.065     -657247.1782         31.000  
  23270488.573     1640113.7163         27.000  
  23216936.333      953990.8373         28.000  
  22898845.057     -674719.293          45.000  
 13  7 18 12 13 26.0000000  0  6G25G14G29G24G 4G31
  20117765.447      270350.275          44.000  
  21998390.804      983655.7342         32.000  
  21645035.098     -658890.1702         31.000  
  23271395.374     1644870.8613         28.000  
  23217421.345      956527.9623         27.000  
  22898515.998     -676451.535          45.000  
 13  7 18 12 13 27.0000000  0  6G25G14G29G24G 4G31
  20117907.667      271096.591          44.000  
  21998887.734      986265.1832         32.000  
  21644721.169     -660530.0002         31.000  
  23272301.634     1649631.2113         28.000  
  23217906.722      959068.7163         28.000  
  22898186.817     -678180.647          45.000  
 13  7 18 12 13 28.0000000  0  6G25G14G29G24G 4G31
  20118050.287      271844.607          44.000  
  21999384.053      988876.5302         32.000  
  21644410.101     -662168.0122         31.000  
  23273207.352     1654393.1103         28.000  
  23218392.240      961611.4133         28.000  
  22897857.863     -679908.245          45.000  
 13  7 18 12 13 29.0000000  0  6G25G14G29G24G 4G31
  20118192.960      272592.846          44.000  
  21999881.297      991488.3042         32.000  
  21644098.440     -663805.9342         31.000  
  23274116.072     1659154.9643         29.000  
  23218877.670      964154.5773         28.000  
  22897528.944     -681635.783          45.000  
 13  7 18 12 13 30.0000000  0  6G25G14G29G24G 4G31
  20118334.953      273342.391          44.000  
  22000379.728      994101.5582         33.000  
  21643787.966     -665442.5522         33.000  
  23275022.280     1663917.9703         29.000  
  23219364.007      966698.7263         27.000  
  22897200.286     -683362.206          45.000  
 13  7 18 12 13 31.0000000  0  6G25G14G29G24G 4G31
  20118477.765      274095.364          44.000  
  22000878.123      996718.412          33.000  
  21643476.672     -667076.241          33.000  
  23275928.906     1668684.0533         29.000  
  23219850.101      969246.9913         27.000  
  22896872.885     -685085.382          45.000  
 13  7 18 12 13 32.0000000  0  6G25G14G29G24G 4G31
  20118621.712      274851.805          44.000  
  22001376.659      999338.952          33.000  
  21643167.349     -668705.987          34.000  
  23276839.598     1673453.4693         29.000  
  23220335.287      971799.1133         27.000  
  22896545.153     -686805.272          45.000  
 13  7 18 12 13 33.0000000  0  7G25G14G29G 2G24G 4G31
  20118765.624      275608.992          44.000  
  22001876.555     1001960.447          33.000  
  21642857.486     -670335.049          33.000  
  22724027.152      116275.6003         22.000  
  23277747.061     1678223.4633         29.000  
  23220818.937      974352.2473         27.000  
  22896218.310     -688524.587          45.000  
 13  7 18 12 13 34.0000000  0  7G25G14G29G 2G24G 4G31
  20118910.129      276366.475          44.000  
  22002376.347     1004582.356          33.000  
  21642548.006     -671963.808          33.000  
  22724102.241      116645.9353         23.000  
  23278655.956     1682993.5113         29.000  
  23221307.735      976905.8083         27.000  
  22895891.101     -690243.819          45.000  
 13  7 18 12 13 35.0000000  0  7G25G14G29G 2G24G 4G31
  20119054.024      277125.951          44.000  
  22002875.772     1007206.447          33.000  
  21642238.352     -673590.625          33.000  
  22724174.467      117017.4213         25.000  
  23279564.397     1687765.4603         29.000  
  23221793.723      979461.6133         29.000  
  22895564.468     -691961.236          45.000  
 13  7 18 12 13 36.0000000  0  7G25G14G29G 2G24G 4G31
  20119199.454      277887.610          44.000  
  22003375.721     1009832.941          33.000  
  21641929.221     -675215.238          34.000  
  22724247.269      117391.2583         25.000  
  23280472.349     1692539.2073         29.000  
  23222278.822      982019.8423         30.000  
  22895237.782     -693676.600          45.000  
 13  7 18 12 13 37.0000000  0  7G25G14G29G 2G24G 4G31
  20119345.338      278650.355          44.000  
  22003875.495     1012460.664          33.000  
  21641620.195     -676838.850          33.000  
  22724320.874      117766.2223         26.000  
  23281381.663     1697313.9053         29.000  
  23222763.275      984579.3593         29.000  
  22894912.057     -695391.098          45.000  
 13  7 18 12 13 38.0000000  0  7G25G14G29G 2G24G 4G31
  20119490.244      279413.542          44.000  
  22004375.758     1015089.110          33.000  
  21641311.414     -678462.040          33.000  
  22724390.937      118141.9293         26.000  
  23282292.337     1702088.9733         30.000  
  23223249.368      987139.6873         29.000  
  22894585.999     -697105.334          45.000  
 13  7 18 12 13 39.0000000  0  8G25G12G14G29G 2G24G 4G31
  20119636.442      280178.327          44.000  
  21076720.508     1317523.0943         27.000  
  22004876.091     1017719.281          33.000  
  21641003.156     -680083.627          34.000  
  22724463.286      118518.8083         24.000  
  23283203.064     1706865.1563         29.000  
  23223737.974      989701.5923         28.000  
  22894259.768     -698818.136          45.000  
 13  7 18 12 13 40.0000000  0  8G25G12G14G29G 2G24G 4G31
  20119782.361      280946.186          44.000  
  21077349.309     1320846.3013         26.000  
  22005377.418     1020352.725          33.000  
  21640695.735     -681702.214          33.000  
  22724537.083      118899.9043         25.000  
  23284113.250     1711644.4143         29.000  
  23224225.499      992266.9543         28.000  
  22893934.740     -700528.033          45.000  
 13  7 18 12 13 41.0000000  0  8G25G12G14G29G 2G24G 4G31
  20119929.519      281717.238          44.000  
  21077978.860     1324172.7253         25.000  
  22005878.518     1022989.569          33.000  
  21640388.210     -683317.621          34.000  
  22724609.728      119280.3883         24.000  
  23285024.657     1716426.6903         29.000  
  23224715.361      994835.8353         28.000  
  22893609.206     -702234.931          45.000  
 13  7 18 12 13 42.0000000  0  8G25G12G14G29G 2G24G 4G31
  20120076.031      282489.321          44.000  
  21078614.327     1327500.4893         25.000  
  22006380.509     1025627.564          33.000  
  21640080.912     -684931.913          33.000  
  22724685.026      119665.0603         23.000  
  23285934.965     1721209.7973         28.000  
  23225203.688      997406.0833         30.000  
  22893284.440     -703940.971          45.000  
 13  7 18 12 13 43.0000000  0  8G25G12G14G29G 2G24G 4G31
  20120222.874      283261.815          44.000  
  21079248.102     1330829.2643         25.000  
  22006882.796     1028266.180          33.000  
  21639773.334     -686545.905          33.000  
  22724758.666      120050.7163         24.000  
  23286846.059     1725993.0863         28.000  
  23225692.381      999976.7192         31.000  
  22892960.355     -705646.783          45.000  
 13  7 18 12 13 44.0000000  0  8G25G12G14G29G 2G24G 4G31
  20120370.887      284036.796          44.000  
  21079883.534     1334159.1573         25.000  
  22007385.100     1030907.483          33.000  
  21639466.472     -688157.443          33.000  
  22724831.066      120440.9733         23.000  
  23287755.686     1730778.5363         28.000  
  23226182.889     1002550.1582         31.000  
  22892635.850     -707350.287          44.000  
 13  7 18 12 13 45.0000000  0  8G25G12G14G29G 2G24G 4G31
  20120518.272      284813.143          44.000  
  21080517.518     1337490.2483         25.000  
  22007887.457     1033550.296          33.000  
  21639160.168     -689767.639          32.000  
  22724905.439      120832.3463         24.000  
  23288665.104     1735565.3153         29.000  
  23226665.493     1005125.1253         31.000  
  22892311.451     -709052.602          44.000  
 13  7 18 12 13 46.0000000  0  7G25G14G29G 2G24G 4G31
  20120666.494      285591.332          44.000  
  22008390.198     1036195.234          33.000  
  21638853.359     -691376.008          32.000  
  22724977.142      121223.6593         25.000  
  23289576.581     1740353.6243         29.000  
  23227150.539     1007702.1772         31.000  
  22891988.116     -710753.255          44.000  
 13  7 18 12 13 47.0000000  0  7G25G14G29G 2G24G 4G31
  20120815.100      286372.262          44.000  
  22008894.439     1038843.025          33.000  
  21638547.683     -692981.1553         31.000  
  22725056.192      121616.6873         27.000  
  23290487.116     1745144.2593         29.000  
  23227642.042     1010282.3113         32.000  
  22891665.130     -712451.340          44.000  
 13  7 18 12 13 48.0000000  0  7G25G14G29G 2G24G 4G31
  20120964.421      287156.564          44.000  
  22009399.728     1041494.401          34.000  
  21638242.880     -694583.4542         31.000  
  22725133.217      122014.7973         28.000  
  23291399.501     1749938.3533         29.000  
  23228135.307     1012865.9362         32.000  
  22891342.091     -714146.241          44.000  
 13  7 18 12 13 49.0000000  0  7G25G14G29G 2G24G 4G31
  20121113.516      287942.607          44.000  
  22009904.685     1044147.695          34.000  
  21637938.479     -696183.9922         31.000  
  22725210.591      122414.7703         27.000  
  23292314.172     1754733.9513         29.000  
  23228625.972     1015451.5263         31.000  
  22891019.524     -715839.585          44.000  
 13  7 18 12 13 50.0000000  0  7G25G14G29G 2G24G 4G31
  20121263.762      288729.760          44.000  
  22010410.602     1046802.243          34.000  
  21637634.077     -697783.4852         31.000  
  22725286.412      122816.1073         27.000  
  23293223.782     1759530.5223         28.000  
  23229117.615     1018038.5272         30.000  
  22890697.969     -717531.983          45.000  
 13  7 18 12 13 51.0000000  0  7G25G14G29G 2G24G 4G31
  20121413.119      289516.601          44.000  
  22010915.995     1049456.726          34.000  
  21637329.448     -699383.3562         31.000  
  22725363.508      123217.1073         27.000  
  23294137.789     1764326.5123         28.000  
  23229610.269     1020625.4143         31.000  
  22890375.367     -719224.893          44.000  
 13  7 18 12 13 52.0000000  0  7G25G14G29G 2G24G 4G31
  20121563.138      290302.871          44.000  
  22011421.214     1052110.814          34.000  
  21637025.989     -700983.8112         32.000  
  22725439.189      123617.6373         27.000  
  23295051.692     1769121.6273         29.000  
  23230101.720     1023211.9892         32.000  
  22890052.974     -720918.547          44.000  
 13  7 18 12 13 53.0000000  0  7G25G14G29G 2G24G 4G31
  20121713.804      291091.112          45.000  
  22011926.485     1054767.013          34.000  
  21636721.326     -702582.2732         32.000  
  22725513.213      124020.3403         27.000  
  23295964.303     1773918.4633         29.000  
  23230594.531     1025800.7032         32.000  
  22889730.808     -722610.416          44.000  
 13  7 18 12 13 54.0000000  0  7G25G14G29G 2G24G 4G31
  20121863.649      291882.370          44.000  
  22012432.977     1057426.433          34.000  
  21636417.029     -704177.8332         31.000  
  22725592.734      124426.1683         28.000  
  23296879.707     1778717.9003         29.000  
  23231088.495     1028392.7102         32.000  
  22889409.986     -724299.410          44.000  
 13  7 18 12 13 55.0000000  0  7G25G14G29G 2G24G 4G31
  20122014.296      292674.348          44.000  
  22012939.522     1060086.782          33.000  
  21636114.477     -705772.6393         32.000  
  22725670.038      124833.0233         27.000  
  23297793.732     1783518.3473         30.000  
  23231582.266     1030985.7202         33.000  
  22889088.832     -725987.896          45.000  
 13  7 18 12 13 56.0000000  0  7G25G14G29G 2G24G 4G31
  20122165.119      293466.320          44.000  
  22013445.613     1062747.280          33.000  
  21635811.140     -707367.4653         31.000  
  22725745.824      125239.9063         27.000  
  23298704.162     1788318.5143         29.000  
  23232075.479     1033578.8302         32.000  
  22888767.224     -727676.570          45.000  
 13  7 18 12 13 57.0000000  0  7G25G14G29G 2G24G 4G31
  20122316.499      294259.579          44.000  
  22013952.350     1065409.310          33.000  
  21635507.907     -708961.0303         31.000  
  22725822.850      125648.0773         27.000  
  23299616.337     1793119.5093         29.000  
  23232569.198     1036173.4982         32.000  
  22888446.280     -729364.137          44.000  
 13  7 18 12 13 58.0000000  0  7G25G14G29G 2G24G 4G31
  20122468.299      295055.466          44.000  
  22014459.925     1068074.104          33.000  
  21635205.617     -710552.1083         30.000  
  22725903.295      126059.0263         25.000  
  23300533.242     1797923.0063         28.000  
  23233063.563     1038771.0832         33.000  
  22888126.400     -731049.238          45.000  
 13  7 18 12 13 59.0000000  0  7G25G14G29G 2G24G 4G31
  20122620.290      295853.465          44.000  
  22014966.609     1070741.170          33.000  
  21634902.682     -712140.8483         30.000  
  22725983.025      126472.9253         25.000  
  23301447.232     1802728.6113         28.000  
  23233558.992     1041370.9622         33.000  
  22887806.154     -732732.419          45.000  
 13  7 18 12 14  0.0000000  0  7G25G14G29G 2G24G 4G31
  20122771.863      296651.297          44.000  
  22015474.917     1073408.309          33.000  
  21634600.706     -713729.9163         30.000  
  22726061.848      126886.3483         26.000  
  23302360.140     1807533.8133         29.000  
  23234053.252     1043970.8842         33.000  
  22887486.151     -734415.946          45.000  
 13  7 18 12 14  1.0000000  0  7G25G14G29G 2G24G 4G31
  20122923.226      297449.004          44.000  
  22015982.910     1076075.468          33.000  
  21634298.869     -715319.1303         30.000  
  22726139.379      127299.4763         27.000  
  23303274.531     1812338.3993         29.000  
  23234546.726     1046570.448          33.000  
  22887164.980     -736099.770          45.000  
 13  7 18 12 14  2.0000000  0  7G25G14G29G 2G24G 4G31
  20123075.409      298247.720          44.000  
