     2.11           OBSERVATION DATA    M (MIXED)           RINEX VERSION / TYPE
CONVBIN 2.4.2                           20180514 142205 UTC PGM / RUN BY / DATE 
log: 135700.ubx                                             COMMENT             
format: u-blox                                              COMMENT             
                                                            MARKER NAME         
                                                            MARKER NUMBER       
                                                            OBSERVER / AGENCY   
                                                            REC # / TYPE / VERS 
                                                            ANT # / TYPE        
  4146487.9864   612939.2039  4791575.1206                  APPROX POSITION XYZ 
        0.0000        0.0000        0.0000                  ANTENNA: DELTA H/E/N
     1     1                                                WAVELENGTH FACT L1/2
     4    C1    L1    C2    L2                              # / TYPES OF OBSERV 
  2018     5    14    13    57   19.0010000     GPS         TIME OF FIRST OBS   
  2018     5    14    14     6   58.0010000     GPS         TIME OF LAST OBS    
                                                            END OF HEADER       
 18  5 14 13 57 19.0010000  0  7G29G31G25G26G21G23S25
  20387637.460      219338.300                                  
  21339478.189      219180.145                                  
  21908834.356      259090.967                                  
  22282023.116      113274.407                                  
  22819413.007      104246.0323                                 
  25491151.907      175748.2103                                 
  38904660.397      182654.4372                                 
 18  5 14 13 57 20.0010000  0  7G29G31G25G26G21G23S25
  20389026.096      226638.613                                  
  21340867.444      226483.895                                  
  21910510.598      267901.165                                  
  22282725.200      116964.126                                  
  22820089.752      107786.9703                                 
  25492292.209      181729.3503                                 
  38905843.705      188879.4012                                 
 18  5 14 13 57 21.0010000  0  6G29G31G25G26G21S25
  20390413.441      233929.383                                  
  21342255.670      233778.266                                  
  21912185.348      276701.714                                  
  22283425.808      120644.108                                  
  22820762.476      111317.9593                                 
  38907024.483      195094.2972                                 
 18  5 14 13 57 22.0010000  0  7G29G31G25G26G21G 5S25
  20391799.895      241214.112                                  
  21343642.814      241066.768                                  
  21913859.077      285496.155                                  
  22284124.873      124317.895                                  
  22821434.449      114842.7152                                 
  24274602.099      184368.9473                                 
  38908204.205      201302.6072                                 
 18  5 14 13 57 23.0010000  0  8G29G31G25G26G21G 5G12S25
  20393184.282      248490.434                                  
  21345028.012      248347.032                                  
  21915530.895      294282.027                                  
  22284822.219      127983.024                                  
  22822102.295      118358.9213                                 
  24275552.159      189369.4213                                 
  25177821.931      333133.5233                                 
  38909380.690      207501.9932                                 
 18  5 14 13 57 24.0010000  0  7G29G31G25G26G21G 5S25
  20394566.732      255753.883                                  
  21346411.596      255614.622                                  
  21917200.689      303055.000                                  
  22285517.409      131635.100                                  
  22822768.125      121862.1653                                 
  24276507.968      194355.6623                                 
  38910554.941      213687.7612                                 
 18  5 14 13 57 25.0010000  0  7G29G31G25G26G21G 5S25
  20395947.079      263005.333                                  
  21347792.310      262870.405                                  
  21918867.446      311815.840                                  
  22286210.331      135275.021                                  
  22823431.513      125353.3752                                 
  24277456.230      199329.5233                                 
  38911726.261      219860.8942                                 
 18  5 14 13 57 26.0010000  0  7G29G31G25G26G21G 5S25
  20397325.620      270250.195                                  
  21349172.011      270119.788                                  
  21920533.201      320570.031                                  
  22286901.316      138908.168                                  
  22824098.207      128837.8792                                 
  24278402.669      204297.0703                                 
  38912896.429      226026.8702                                 
 18  5 14 13 57 27.0010000  0  7G29G31G25G26G21G 5S25
  20398702.259      277487.275                                  
  21350549.715      277361.584                                  
  21922197.157      329316.381                                  
  22287591.184      142533.356                                  
  22824756.019      132314.5772                                 
  24279343.916      209256.9322                                 
  38914065.646      232184.7642                                 
 18  5 14 13 57 28.0010000  0  7G29G31G25G26G21G 5S25
  20400077.153      284711.752                                  
  21351925.743      284590.937                                  
  21923860.189      338049.983                                  
  22288278.199      146145.739                                  
  22825413.465      135778.4762                                 
  24280286.917      214204.2672                                 
  38915230.692      238329.8292                                 
 18  5 14 13 57 29.0010000  0  8G29G31G25G26G21G 5G23S25
  20401449.691      291924.288                                  
  21353298.438      291808.548                                  
  21925519.941      346771.556                                  
  22288963.365      149745.996                                  
  22826070.658      139230.2762                                 
  24281228.313      219139.7382                                 
  25502460.530      235139.8473                                 
  38916394.683      244462.7312                                 
 18  5 14 13 57 30.0010000  0  8G29G31G25G26G21G 5G23S25
  20402821.313      299131.213                                  
  21354670.837      299020.728                                  
  21927178.758      355487.434                                  
  22289647.204      153340.436                                  
  22826725.555      142676.4922                                 
  24282168.740      224069.7312                                 
  25503580.703      241026.4993                                 
  38917556.666      250589.7222                                 
 18  5 14 13 57 31.0010000  0  7G29G31G25G26G21G 5S25
  20404191.845      306332.237                                  
  21356042.258      306227.187                                  
  21928835.848      364197.310                                  
  22290330.336      156928.792                                  
  22827379.555      146116.077                                  
  24283109.228      228993.9352                                 
  38918717.429      256710.4602                                 
 18  5 14 13 57 32.0010000  0  8G29G31G25G26S20G21G 5S25
  20405560.282      313522.127                                  
  21357412.449      313422.705                                  
  21930490.783      372895.938                                  
  22291010.659      160505.830                                  
  38869916.368      264391.2842                                 
  22828031.303      149545.006                                  
  24284042.675      233907.1182                                 
  38919876.394      262819.7352                                 
 18  5 14 13 57 33.0010000  0  8G29G31G25G26S20G21G 5S25
  20406926.268      320700.338                                  
  21358779.360      320606.727                                  
  21932144.523      381582.835                                  
  22291689.411      164070.991                                  
  38871079.102      270501.1072                                 
  22828681.350      152962.5763                                 
  24284976.262      238808.7652                                 
  38921033.805      268916.9092                                 
 18  5 14 13 57 34.0010000  0  8G29G31G25G26S20G21G 5S25
  20408290.822      327872.285                                  
  21360144.787      327784.688                                  
  21933796.893      390263.355                                  
  22292366.907      167629.704                                  
  38872240.824      276604.4302                                 
  22829329.494      156373.3222                                 
  24285907.598      243704.2052                                 
  38922189.690      275007.3092                                 
 18  5 14 13 57 35.0010000  0  8G29G31G25G26S20G21G 5S25
  20409655.054      335039.698                                  
  21361509.882      334958.270                                  
  21935448.050      398939.222                                  
  22293043.164      171183.691                                  
  38873401.054      282702.6202                                 
  22829976.889      159779.4073                                 
  24286838.087      248595.2162                                 
  38923343.665      281092.6922                                 
 18  5 14 13 57 36.0010000  0  8G29G31G25G26S20G21G 5S25
  20411017.646      342197.672                                  
  21362873.312      342122.622                                  
  21937097.706      407605.584                                  
  22293717.249      174728.043                                  
  38874559.775      288790.8772                                 
  22830622.486      163175.9643                                 
  24287766.857      253476.8963                                 
  38924495.475      287168.1382                                 
 18  5 14 13 57 37.0010000  0  8G29G31G25G26S20G21G 5S25
  20412377.672      349345.012                                  
  21364235.615      349276.499                                  
  21938745.705      416261.180                                  
  22294389.885      178261.546                                  
  38875715.904      294868.2032                                 
  22831265.744      166561.7693                                 
  24288694.711      258347.9972                                 
  38925645.514      293232.5712                                 
 18  5 14 13 57 38.0010000  0  8G29G31G25G26S20G21G 5S25
  20413736.390      356485.747                                  
  21365595.650      356423.970                                  
  21940391.862      424910.121                                  
  22295061.369      181788.286                                  
  38876870.585      300938.6902                                 
  22831908.279      169940.8083                                 
  24289620.725      263212.6552                                 
  38926794.314      299289.9032                                 
 18  5 14 13 57 39.0010000  0  8G29G31G25G26S20G21G 5S25
  20415094.592      363622.505                                  
  21366955.371      363567.654                                  
  21942037.339      433554.995                                  
  22295731.475      185310.865                                  
  38878024.899      307004.6372                                 
  22832549.941      173315.9083                                 
  24290545.979      268073.4543                                 
  38927941.910      305342.8122                                 
 18  5 14 13 57 40.0010000  0  7G29G31G25G26S20G21G 5
  20416451.539      370751.612                                  
  21368313.286      370703.853                                  
  21943681.700      442192.076                                  
  22296400.726      188825.614                                  
  38879177.268      313062.4092                                 
  22833190.442      176683.2123                                 
  24291470.465      272926.7063                                 
 18  5 14 13 57 41.0010000  0  7G29G31G25G26S20G21S25
  20417806.217      377871.165                                  
  21369669.351      377830.687                                  
  21945324.018      450819.549                                  
  22297067.726      192330.604                                  
  38880328.049      319110.1522                                 
  22833828.798      180040.7883                                 
  38930220.577      317425.5083                                 
 18  5 14 13 57 42.0010000  0  7G29G31G25G26S20G21S25
  20419160.066      384984.658                                  
  21371024.081      384951.527                                  
  21946965.237      459440.856                                  
  22297733.478      195829.374                                  
  38881478.428      325151.3592                                 
  22834467.074      183392.2022                                 
  38931363.122      323453.6203                                 
 18  5 14 13 57 43.0010000  0  7G29G31G25G26S20G23S25
  20420513.330      392094.888                                  
  21372378.349      392069.475                                  
  21948605.610      468058.873                                  
  22298398.645      199324.687                                  
  38882626.880      331188.9012                                 
  25517996.991      316855.7273                                 
  38932510.159      329477.9133                                 
 18  5 14 13 57 44.0010000  0  9G29G31G25G26S20G21G 5G23S25
  20421865.251      399199.567                                  
  21373731.849      399181.984                                  
  21950245.381      476671.050                                  
  22299063.071      202814.233                                  
  38883774.833      337220.6252                                 
  22835739.073      190083.2283                                 
  24295193.094      292272.6383                                 
  25519098.859      322642.4773                                 
  38933648.594      335496.3402                                 
 18  5 14 13 57 45.0010000  0  8G29G31G25G26S20G21G 5G23
  20423214.598      406294.386                                  
  21375083.081      406284.867                                  
  21951882.988      485273.388                                  
  22299725.341      206293.767                                  
  38884919.777      343242.1472                                 
  22836375.500      193415.9693                                 
  24296120.381      297092.2823                                 
  25520195.788      328419.2583                                 
 18  5 14 13 57 46.0010000  0  8G29G31G25G26S20G21G 5G23
  20424563.482      413381.750                                  
  21376432.759      413380.428                                  
  21953518.483      493868.210                                  
  22300385.876      209765.633                                  
  38886064.808      349255.7802                                 
  22837009.449      196740.6073                                 
  24297040.645      301904.2033                                 
  25521293.485      334188.2223                                 
 18  5 14 13 57 47.0010000  0  8G29G31G25G26S20G21G 5G23
  20425911.651      420465.757                                  
  21377782.062      420472.766                                  
  21955153.874      502459.595                                  
  22301045.555      213233.957                                  
  38887208.399      355265.6372                                 
  22837641.722      200062.2303                                 
  24297957.968      306712.9993                                 
  25522391.627      339954.2033                                 
 18  5 14 13 57 48.0010000  0  8G29G31G25G26S20G21G 5G23
  20427258.328      427545.336                                  
  21379131.069      427560.933                                  
  21956787.651      511046.438                                  
  22301705.103      216697.668                                  
  38888351.048      361270.4442                                 
  22838267.409      203379.1162                                 
  24298877.978      311517.8963                                 
  25523487.161      345716.0913                                 
 18  5 14 13 57 49.0010000  0  8G29G31G25G26S20G21G 5G23
  20428603.504      434614.835                                  
  21380477.746      434639.177                                  
  21958419.517      519623.092                                  
  22302362.270      220151.105                                  
  38889491.446      367264.9332                                 
  22838903.661      206685.8552                                 
  24299792.186      316312.5533                                 
  25524581.272      351467.9533                                 
 18  5 14 13 57 50.0010000  0  9G29G31G25G26S20G21G 5G12G23
  20429947.258      441675.562                                  
  21381823.288      441708.847                                  
  21960049.210      528190.900                                  
  22303016.976      223595.591                                  
  38890630.090      373250.0752                                 
  22839530.735      209983.6202                                 
  24300700.767      321098.2303                                 
  25227359.915      593792.2723                                 
  25525672.312      357210.7863                                 
 18  5 14 13 57 51.0010000  0 10G29G31G25G26S20G21G 5G12G23S25
  20431290.794      448733.082                                  
  21383168.098      448775.493                                  
  21961678.467      536755.398                                  
  22303672.162      227036.695                                  
  38891768.656      379231.3472                                 
  22840156.465      213278.1702                                 
  24301611.860      325880.8663                                 
  25229173.856      603326.6373                                 
  25526765.533      362950.6323                                 
  38941610.204      377411.2562                                 
 18  5 14 13 57 52.0010000  0 10G29G31G25G26S20G21G 5G12G23S25
  20432633.195      455787.350                                  
  21384512.681      455839.062                                  
  21963306.799      545316.608                                  
  22304325.786      230474.323                                  
  38892906.375      385208.9062                                 
  22840783.067      216569.3543                                 
  24302518.093      330660.7173                                 
  25230988.792      612857.6623                                 
  25527858.423      368687.2933                                 
  38942742.304      383374.9362                                 
 18  5 14 13 57 53.0010000  0  9G29G31G26S20G21G 5G12G23S25
  20433973.555      462832.382                                  
  21385854.594      462893.617                                  
  22304977.456      233902.572                                  
  38894041.983      391176.7402                                 
  22841407.000      219851.4193                                 
  24303421.622      335431.4083                                 
  25232801.172      622379.1603                                 
  25528951.260      374415.0803                                 
  38943872.301      389328.9032                                 
 18  5 14 13 57 54.0010000  0  8G29G31G25G26S20G21G 5G23
  20435312.135      469868.330                                  
  21387195.085      469939.227                                  
  21966560.890      562411.0533                                 
  22305628.244      237321.498                                  
  38895175.410      397135.2422                                 
  22842032.695      223123.9213                                 
  24304326.119      340192.7983                                 
  25530034.360      380133.8872                                 
 18  5 14 13 57 55.0010000  0  8G29G31G25G26S20G21G 5G23
  20436649.773      476898.093                                  
  21388534.747      476978.845                                  
  21968183.725      570947.4932                                 
  22306277.601      240734.084                                  
  38896308.540      403087.3622                                 
  22842654.524      226390.2083                                 
  24305229.892      344948.3883                                 
  25531122.268      385846.6393                                 
 18  5 14 13 57 56.0010000  0  8G29G31G25G26S20G21G 5G23
  20437986.800      483921.128                                  
  21389873.327      484011.942                                  
  21969806.682      579476.9612                                 
  22306926.226      244139.764                                  
  38897439.785      409032.4702                                 
  22843274.845      229649.6662                                 
  24306133.098      349697.1503                                 
  25532210.307      391552.6653                                 
 18  5 14 13 57 57.0010000  0  8G29G31G25G26S20G21G 5G23
  20439321.000      490938.096                                  
  21391210.729      491039.098                                  
  21971427.633      588003.2903                                 
  22307573.638      247539.153                                  
  38898570.533      414970.7872                                 
  22843894.266      232903.0392                                 
  24307031.453      354440.2593                                 
  25533292.909      397252.9002                                 
 18  5 14 13 57 58.0010000  0  8G29G31G25G26S20G21G 5G23
  20440655.383      497947.324                                  
  21392546.857      498058.717                                  
  21973047.580      596519.2173                                 
  22308218.476      250930.621                                  
  38899698.794      420900.3912                                 
  22844511.079      236148.5733                                 
  24307927.190      359175.5513                                 
  25534375.242      402945.5323                                 
 18  5 14 13 57 59.0010000  0  7G29G31G25G26S20G12G23
  20441987.585      504948.322                                  
  21393881.162      505070.232                                  
  21974667.667      605026.7483                                 
  22308861.944      254313.687                                  
  38900825.371      426821.5312                                 
  25243645.566      679346.7823                                 
  25535457.513      408629.9432                                 
 18  5 14 13 58  0.0010000  0  9G29G31G25G26S20G21G 5G12S25
  20443319.648      511941.824                                  
  21395214.908      512074.539                                  
  21976283.872      613526.3922                                 
  22309504.653      257689.108                                  
  38901950.657      432734.9652                                 
  22845741.948      242615.3813                                 
  24309681.739      368622.8453                                 
  25245445.731      688813.9403                                 
  38951740.195      430792.8092                                 
 18  5 14 13 58  1.0010000  0  9G29G31G25G26S20G21G 5G23S25
  20444649.363      518930.579                                  
  21396546.299      519074.245                                  
  21977902.196      622021.2042                                 
  22310146.062      261059.547                                  
  38903074.600      438643.0302                                 
  22846354.826      245840.1793                                 
  24310572.826      373337.8543                                 
  25537618.155      419979.6113                                 
  38952843.772      436686.4763                                 
 18  5 14 13 58  2.0010000  0 10G29G31G25G26S20G21G 5G16G23S25
  20445978.965      525915.679                                  
  21397877.445      526070.461                                  
  21979515.853      630512.2422                                 
  22310787.130      264426.144                                  
  38904198.298      444547.1502                                 
  22846968.724      249061.0563                                 
  24311461.906      378049.7093                                 
  24568162.976      227446.3863                                 
  25538694.895      425648.7393                                 
  38953957.646      442578.4403                                 
 18  5 14 13 58  3.0010000  0 10G29G31G25G26S20G21G 5G16G23S25
  20447306.229      532895.077                                  
  21399207.466      533061.207                                  
  21981130.678      638997.5242                                 
  22311426.000      267786.885                                  
  38905320.120      450445.1772                                 
  22847582.466      252276.2112                                 
  24312355.828      382755.7062                                 
  24568661.983      230052.3763                                 
  25539774.191      431312.2263                                 
  38955076.790      448463.9323                                 
 18  5 14 13 58  4.0010000  0 10G29G31G25G26S20G21G 5G16G23S25
  20448633.902      539869.358                                  
  21400536.108      540046.984                                  
  21982744.492      647477.6082                                 
  22312064.757      271142.312                                  
  38906441.567      456337.5302                                 
  22848192.124      255486.1442                                 
  24313255.841      387456.7532                                 
  24569158.947      232652.5463                                 
  25540849.054      436970.4813                                 
  38956189.712      454343.4683                                 
 18  5 14 13 58  5.0010000  0  9G29G31G25G26S20G21G16G23S25
  20449960.991      546842.644                                  
  21401865.841      547031.970                                  
  21984358.306      655956.4772                                 
  22312702.615      274496.576                                  
  38907562.953      462228.3792                                 
  22848803.300      258695.0202                                 
  24569656.296      235251.4633                                 
  25541926.562      442627.8723                                 
  38957306.011      460221.6442                                 
 18  5 14 13 58  6.0010000  0  8G29G31G25G26S20G21G 5S25
  20451286.859      553813.061                                  
  21403195.504      554014.262                                  
  21985970.697      664432.6322                                 
  22313340.385      277847.717                                  
  38908683.841      468116.1452                                 
  22849414.259      261900.8582                                 
  24315046.826      396854.1902                                 
  38958420.347      466096.5972                                 
 18  5 14 13 58  7.0010000  0  8G29G31G25G26S20G21G 5S25
  20452612.281      560776.599                                  
  21404522.636      560989.826                                  
  21987582.050      672901.076                                  
  22313976.856      281191.839                                  
  38909802.435      473996.5432                                 
  22850027.398      265099.8142                                 
  24315942.511      401544.7702                                 
  38959533.924      471964.1592                                 
 18  5 14 13 58  8.0010000  0  8G29G31G25G26S20G21G 5S25
  20453936.046      567734.326                                  
  21405849.211      567959.768                                  
  21989192.513      681364.201                                  
  22314611.939      284529.937                                  
  38910920.157      479870.6522                                 
  22850634.299      268292.7292                                 
  24316826.906      406229.6732                                 
  38960647.388      477825.5032                                 
 18  5 14 13 58  9.0010000  0  9G29G31G25G26S20G21G 5G23S25
  20455259.270      574690.785                                  
  21407174.520      574928.660                                  
  21990802.767      689825.978                                  
  22315247.074      287866.606                                  
  38912038.009      485743.0332                                 
  22851242.501      271484.3992                                 
  24317717.495      410913.4863                                 
  25546219.368      465214.4443                                 
  38961760.136      483685.0562                                 
 18  5 14 13 58 10.0010000  0  9G29G31G25G26S20G21G 5G23S25
  20456582.886      581645.969                                  
  21408500.361      581896.458                                  
  21992412.960      698286.371                                  
  22315881.242      291201.831                                  
  38913155.084      491613.5832                                 
  22851850.335      274674.6632                                 
  24318608.442      415596.0933                                 
  25547296.735      470854.6483                                 
  38962872.421      489542.9232                                 
 18  5 14 13 58 11.0010000  0  9G29G31G25G26S20G21G 5G23S25
  20457904.993      588594.384                                  
  21409824.335      588857.664                                  
  21994021.460      706739.915                                  
  22316514.248      294530.087                                  
  38914270.511      497476.9442                                 
  22852456.181      277858.0582                                 
  24319499.084      420271.9963                                 
  25548369.740      476488.1043                                 
  38963982.360      495393.6182                                 
 18  5 14 13 58 12.0010000  0  9G29G31G25G26S20G21G 5G23S25
  20459225.722      595535.475                                  
  21411148.144      595811.730                                  
  21995628.450      715186.014                                  
  22317146.810      297850.823                                  
  38915384.987      503332.5982                                 
  22853060.787      281033.9653                                 
  24320387.064      424940.6913                                 
  25549439.692      482114.2463                                 
  38965091.033      501236.4602                                 
 18  5 14 13 58 13.0010000  0  9G29G31G25G26S20G21G 5G23S25
  20460545.822      602474.825                                  
  21412471.097      602764.238                                  
  21997235.545      723630.300                                  
  22317778.010      301169.649                                  
  38916499.157      509186.1482                                 
  22853666.301      284208.0963                                 
  24321274.408      429607.8873                                 
  25550512.557      487738.6543                                 
  38966199.044      507077.0502                                 
 18  5 14 13 58 14.0010000  0  9G29G31G25G26S20G21G 5G23S25
  20461866.053      609413.243                                  
  21413793.553      609715.998                                  
  21998842.388      732073.558                                  
  22318409.028      304487.344                                  
  38917612.516      515038.3512                                 
  22854267.827      287381.7533                                 
  24322161.332      434274.1193                                 
  25551582.797      493362.2683                                 
  38967306.373      512916.3162                                 
 18  5 14 13 58 15.0010000  0  9G29G31G25G26S20G21G 5G23S25
  20463185.508      616345.688                                  
  21415115.442      616661.954                                  
  22000448.549      740510.757                                  
  22319039.731      307798.864                                  
  38918724.871      520884.1872                                 
  22854868.621      290548.7723                                 
  24323046.748      438934.6263                                 
  25552653.053      498980.4153                                 
  38968413.459      518749.2202                                 
 18  5 14 13 58 16.0010000  0  7G29G31G25G26S20G21G23
  20464503.409      623271.856                                  
  21416435.830      623601.821                                  
  22002053.193      748941.540                                  
  22319668.489      311103.947                                  
  38919835.944      526722.9432                                 
  22855468.132      293709.4453                                 
  25553718.215      504592.1683                                 
 18  5 14 13 58 17.0010000  0  7G29G31G25G26S20G21S25
  20465821.058      630196.092                                  
  21417755.285      630539.933                                  
  22003657.121      757370.330                                  
  22320296.949      314406.907                                  
  38920946.406      532559.2422                                 
  22856063.725      296867.8703                                 
  38970614.795      530398.9503                                 
 18  5 14 13 58 18.0010000  0  7G29G31G25G26S20G21S25
  20467138.575      637120.884                                  
  21419075.638      637478.797                                  
  22005261.084      765799.565                                  
  22320925.497      317710.234                                  
  38922057.200      538396.2172                                 
  22856660.532      300026.9332                                 
  38971714.560      536223.7243                                 
 18  5 14 13 58 19.0010000  0  9G29G31G25G26S20G21G 5G23S25
  20468455.351      644041.149                                  
  21420394.813      644413.298                                  
  22006864.148      774224.203                                  
  22321553.330      321008.853                                  
  38923167.260      544228.0562                                 
  22857263.567      303181.4213                                 
  24326579.300      457544.7013                                 
  25556919.073      521419.0373                                 
  38972823.103      542042.6613                                 
 18  5 14 13 58 20.0010000  0  9G29G31G25G26S20G21G 5G23S25
  20469770.697      650954.781                                  
  21421713.422      651341.376                                  
  22008466.750      782642.103                                  
  22322180.308      324300.651                                  
  38924275.236      550052.8672                                 
  22857860.234      306329.0543                                 
  24327466.329      462186.8803                                 
  25557984.549      527018.7243                                 
  38973923.260      547854.5602                                 
 18  5 14 13 58 21.0010000  0  9G29G31G25G26S20G21G 5G23S25
  20471085.928      657865.277                                  
  21423031.227      658266.485                                  
  22010067.833      791056.782                                  
  22322805.741      327589.120                                  
  38925382.723      555873.9272                                 
  22858456.464      309473.1153                                 
  24328350.584      466825.8113                                 
  25559050.984      532615.2733                                 
  38975027.536      553662.8122                                 
 18  5 14 13 58 22.0010000  0  9G29G31G25G26S20G21G 5G23S25
  20472400.889      664775.428                                  
  21424348.553      665191.475                                  
  22011668.699      799471.009                                  
  22323431.043      330877.074                                  
  38926489.852      561694.1872                                 
  22859061.245      312616.9813                                 
  24329231.611      471464.7153                                 
  25560119.993      538211.7173                                 
  38976128.523      559470.2332                                 
 18  5 14 13 58 23.0010000  0  9G29G31G25G26S20G21G 5G23S25
  20473715.449      671682.230                                  
  21425665.538      672113.266                                  
  22013269.722      807881.810                                  
  22324056.381      334161.508                                  
  38927596.562      567510.5032                                 
  22859661.367      315758.4893                                 
  24330118.082      476100.6413                                 
  25561186.585      543805.2913                                 
  38977230.513      565273.8022                                 
 18  5 14 13 58 24.0010000  0  9G29G31G25G26S20G21G 5G23S25
  20475028.403      678581.961                                  
  21426981.145      679028.162                                  
  22014868.860      816285.454                                  
  22324679.764      337438.674                                  
  38928702.260      573319.1802                                 
  22860255.189      318891.7003                                 
  24331000.478      480729.3743                                 
  25562249.844      549391.7023                                 
  38978331.691      571069.8252                                 
 18  5 14 13 58 25.0010000  0  8G29G31G25G26S20G 5G23S25
  20476340.529      685476.416                                  
  21428295.722      685937.980                                  
  22016466.226      824683.707                                  
  22325301.960      340710.338                                  
  38929806.388      579122.1112                                 
  24331889.070      485352.6293                                 
  25563310.486      554972.6043                                 
  38979431.282      576860.0972                                 
 18  5 14 13 58 26.0010000  0  8G29G31G25G26S20G 5G23S25
  20477652.916      692369.944                                  
  21429610.919      692847.043                                  
  22018064.588      833080.959                                  
  22325924.077      343980.933                                  
  38930909.931      584924.0312                                 
  24332777.609      489975.3702                                 
  25564377.052      560552.9093                                 
  38980530.323      582649.0492                                 
 18  5 14 13 58 27.0010000  0  8G29G31G25G26S20G 5G23S25
  20478964.501      699261.481                                  
  21430925.374      699754.323                                  
  22019661.440      841476.105                                  
  22326546.291      347249.370                                  
  38932013.605      590723.6902                                 
  24333660.677      494596.2092                                 
  25565439.927      566131.3882                                 
  38981627.811      588435.5872                                 
 18  5 14 13 58 28.0010000  0  9G29G31G25G26S20G21G 5G23S25
  20480274.707      706145.731                                  
  21432239.175      706654.496                                  
  22021258.091      849863.911                                  
  22327166.943      350510.293                                  
  38933116.258      596515.3652                                 
  22862636.202      331401.1513                                 
  24334536.285      499209.8332                                 
  25566497.777      571702.7152                                 
  38982723.841      594214.2942                                 
 18  5 14 13 58 29.0010000  0  8G29G31G25G26S20G 5G23S25
  20481582.766      713023.172                                  
  21433551.475      713548.040                                  
  22022852.893      858244.792                                  
  22327786.722      353764.273                                  
  38934217.288      602299.9532                                 
  24335418.333      503816.8382                                 
  25567552.791      577267.3712                                 
  38983819.113      599985.7942                                 
 18  5 14 13 58 30.0010000  0  8G29G31G25G26S20G 5G23S25
  20482891.149      719898.599                                  
  21434863.103      720439.755                                  
  22024447.083      866623.550                                  
  22328405.237      357016.042                                  
  38935317.995      608082.0022                                 
  24336298.461      508421.9002                                 
  25568613.468      582830.2032                                 
  38984914.263      605754.8562                                 
 18  5 14 13 58 31.0010000  0  9G29G31G25G26S20G 5G12G23S25
  20484199.173      726772.929                                  
  21436173.832      727330.559                                  
  22026041.449      875001.155                                  
  22329024.082      360266.520                                  
  38936418.502      613862.7722                                 
  24337173.022      513025.9492                                 
  25300841.124      980908.5713                                 
  25569672.635      588392.0502                                 
  38986007.746      611522.2672                                 
 18  5 14 13 58 32.0010000  0  9G29G31G25G26S20G 5G12G23S25
  20485506.151      733639.849                                  
  21437484.021      734214.137                                  
  22027633.476      883371.233                                  
  22329640.695      363509.418                                  
  38937516.548      619635.5772                                 
  24338047.522      517622.7222                                 
  25302626.185      990237.6083                                 
  25570728.748      593946.5822                                 
  38987099.527      617281.8862                                 
 18  5 14 13 58 33.0010000  0  9G29G31G25G26S20G 5G12G23S25
  20486811.602      740499.080                                  
  21438792.447      741090.207                                  
  22029224.569      891733.542                                  
  22330256.120      366744.428                                  
  38938613.879      625400.0892                                 
  24338921.455      522211.9342                                 
  25304401.789      999558.4223                                 
  25571784.303      599493.5312                                 
  38988189.729      623033.4122                                 
 18  5 14 13 58 34.0010000  0  9G29G31G25G26S20G 5G12G23S25
  20488116.800      747356.537                                  
  21440100.803      747964.666                                  
  22030815.540      900093.995                                  
  22330871.502      369977.491                                  
  38939710.137      631162.2882                                 
  24339794.900      526799.4592                                 
  25306174.975     1008876.9803                                 
  25572840.381      605038.8602                                 
  38989280.002      628782.8202                                 
 18  5 14 13 58 35.0010000  0  9G29G31G25G26S20G 5G12G23S25
  20489421.779      754213.710                                  
  21441409.160      754839.071                                  
  22032406.450      908454.127                                  
  22331486.788      373210.102                                  
  38940805.914      636923.8562                                 
  24340668.911      531386.8532                                 
  25307944.715     1018194.9653                                 
  25573895.727      610584.0092                                 
  38990370.937      634531.4142                                 
 18  5 14 13 58 36.0010000  0 10G29G31G25G26S20G21G 5G12G23S25
  20490726.061      761065.373                                  
  21442716.643      761708.119                                  
  22033996.497      916808.567                                  
  22332101.254      376437.004                                  
  38941900.846      642679.6992                                 
  22867351.277      356209.0073                                 
  24341540.820      535968.8372                                 
  25309714.289     1027507.4043                                 
  25574950.287      616123.9092                                 
  38991460.319      640274.1352                                 
 18  5 14 13 58 37.0010000  0 10G29G31G25G26S20G21G 5G12G23S25
  20492029.444      767911.012                                  
  21444022.356      768571.331                                  
  22035585.976      925156.907                                  
  22332714.071      379657.705                                  
  38942994.922      648429.4242                                 
  22867934.890      359287.1543                                 
  24342411.708      540544.886                                  
  25311482.022     1036813.1833                                 
  25576003.478      621657.261                                  
  38992548.532      646010.3342                                 
 18  5 14 13 58 38.0000000  0 10G29G31G25G26S20G21G 5G12G23S25
  20193538.810      774754.730                                  
  21145536.172      775432.813                                  
  21737381.613      933503.249                                  
  22033533.987      382876.289                                  
  38644296.168      654176.3402                                 
  22568727.306      362362.8743                                 
  24043490.202      545119.119                                  
  25013457.929     1046116.4303                                 
  25277263.567      627189.8373                                 
  38693843.932      651744.2592                                 
 18  5 14 13 58 39.0000000  0 10G29G31G25G26S20G21G 5G12G23S25
  20194841.286      781598.671                                  
  21146842.181      782294.678                                  
  21738969.993      941849.661                                  
  22034146.185      386094.925                                  
  38645390.218      659923.2682                                 
  22569312.464      365438.9393                                 
  24044361.090      549693.687                                  
  25015225.505     1055419.7443                                 
  25278316.200      632722.2612                                 
  38694931.735      657477.9922                                 
 18  5 14 13 58 40.0000000  0 10G29G31G25G26S20G21G 5G23S23S25
  20196143.220      788438.774                                  
  21148146.925      789152.916                                  
  21740557.073      950192.192                                  
  22034757.544      389309.518                                  
  38646482.759      665665.8332                                 
  22569898.067      368511.4013                                 
  24045230.460      554264.521                                  
  25279368.387      638250.9373                                 
  38593253.688      635258.4212                                 
  38696007.847      663205.4503                                 
 18  5 14 13 58 41.0000000  0 10G29G31G25G26S20G21G 5G23S23S25
  20197444.369      795273.392                                  
  21149450.133      796005.816                                  
  21742143.481      958529.196                                  
  22035368.424      392518.469                                  
  38647574.357      671402.5152                                 
  22570481.576      371578.0943                                 
  24046098.451      558830.026                                  
  25280419.134      643774.3162                                 
  38594367.945      641110.5502                                 
  38697095.807      668930.1653                                 
 18  5 14 13 58 42.0000000  0 10G29G31G25G26S20G21G 5G23S23S25
  20198744.402      802105.548                                  
  21150753.516      802856.501                                  
  21743729.008      966863.557                                  
  22035978.475      395724.768                                  
  38648665.484      677136.4002                                 
  22571060.749      374642.2293                                 
  24046966.844      563393.216                                  
  25281469.890      649295.3482                                 
  38595481.583      646959.7852                                 
  38698181.053      674651.0733                                 
 18  5 14 13 58 43.0000000  0 10G29G31G25G26S20G21G 5G23S23S25
  20200044.033      808937.454                                  
  21152056.786      809707.112                                  
  21745314.761      975197.686                                  
  22036587.994      398930.642                                  
  38649756.786      682869.5392                                 
  22571648.969      377705.7703                                 
  24047832.837      567956.258                                  
  25282520.254      654816.2802                                 
  38596593.851      652808.2722                                 
  38699263.359      680370.9023                                 
 18  5 14 13 58 44.0000000  0 10G29G31G25G26S20G21G 5G23S23S25
  20201343.184      815766.537                                  
  21153360.195      816555.046                                  
  21746899.948      983528.782                                  
  22037197.661      402133.506                                  
  38650846.709      688599.0902                                 
  22572231.100      380766.6002                                 
  24048698.717      572516.543                                  
  25283570.408      660334.4683                                 
  38597705.457      658653.5312                                 
  38700347.550      686087.7102                                 
 18  5 14 13 58 45.0000000  0 10G29G31G25G26S20G21G 5G23S23S25
  20202641.795      822589.536                                  
  21154662.409      823397.108                                  
  21748484.288      991853.743                                  
  22037805.766      405330.106                                  
  38651936.310      694322.1642                                 
  22572813.196      383821.1662                                 
  24049564.169      577070.897                                  
  25284619.297      665846.7583                                 
  38598816.355      664492.2452                                 
  38701432.177      691798.0362                                 
 18  5 14 13 58 46.0000000  0 10G29G31G25G26S20G21G 5G23S23S25
  20203939.306      829409.428                                  
  21155963.968      830236.242                                  
  21750068.148     1000175.487                                  
  22038413.199      408523.415                                  
  38653024.453      700041.7142                                 
  22573392.368      386872.5472                                 
  24050428.915      581622.243                                  
  25285667.645      671356.0173                                 
  38599927.000      670327.3932                                 
  38702512.878      697504.7412                                 
 18  5 14 13 58 47.0000000  0 10G29G31G25G26S20G21G 5G23S23S25
  20205237.157      836229.620                                  
  21157265.039      837075.840                                  
  21751652.105     1008497.459                                  
  22039020.676      411716.843                                  
  38654112.526      705761.4832                                 
  22573975.633      389924.1352                                 
  24051293.573      586174.014                                  
  25286716.560      676865.7512                                 
  38601037.244      676162.4072                                 
  38703598.124      703211.3092                                 
 18  5 14 13 58 48.0000000  0 10G29G31G25G26S20G21G 5G23S23S25
  20206534.092      843048.447                                  
  21158566.363      843914.281                                  
  21753235.537     1016817.965                                  
  22039627.822      414908.740                                  
  38655200.469      711479.2502                                 
  22574555.129      392974.2822                                 
  24052157.603      590724.505                                  
  25287764.672      682374.2263                                 
  38602146.615      681995.6172                                 
  38704682.315      708916.0572                                 
 18  5 14 13 58 49.0000000  0 10G29G31G25G26S20G21G 5G23S23S25
  20207830.521      849861.930                                  
  21159866.613      850747.552                                  
  21754817.548     1025133.040                                  
  22040234.452      418095.084                                  
  38656286.649      717191.0232                                 
  22575134.136      396018.9702                                 
  24053020.412      595269.796                                  
  25288811.485      687877.4552                                 
  38603255.219      687823.0942                                 
  38705763.522      714615.0322                                 
 18  5 14 13 58 50.0000000  0 10G29G31G25G26S20G21G 5G23S23S25
  20209125.833      856670.323                                  
  21161166.306      857575.921                                  
  21756398.826     1033442.917                                  
  22040839.957      421276.174                                  
  38657372.506      722897.6092                                 
  22575712.828      399058.4582                                 
  24053882.426      599810.112                                  
  25289856.953      693375.7882                                 
  38604363.273      693644.9762                                 
  38706843.219      720308.4782                                 
 18  5 14 13 58 51.0000000  0 10G29G31G25G26S20G21G 5G23S23S25
  20210421.939      863478.915                                  
  21162466.504      864404.667                                  
  21757980.635     1041752.912                                  
  22041445.148      424457.280                                  
  38658458.599      728603.9442                                 
  22576292.237      402098.1032                                 
  24054743.760      604350.812                                  
  25290903.216      698874.4162                                 
  38605471.022      699466.6332                                 
  38707923.745      726001.6092                                 
 18  5 14 13 58 52.0000000  0 10G29G31G25G26S20G21G 5G23S23S25
  20211717.095      870288.756                                  
  21163765.917      871234.848                                  
  21759562.279     1050064.052                                  
  22042050.444      427639.437                                  
  38659544.814      734310.8862                                 
  22576871.026      405138.8612                                 
  24055605.216      608892.795                                  
  25291949.906      704374.3913                                 
  38606578.875      705289.1242                                 
  38709003.678      731695.5282                                 
 18  5 14 13 58 53.0000000  0 10G29G31G25G26S20G21G 5G23S23S25
  20213012.511      877096.525                                  
  21165065.112      878063.139                                  
  21761143.932     1058373.031                                  
  22042656.150      430819.359                                  
  38660630.471      740015.2882                                 
  22577449.247      408177.4612                                 
  24056466.638      613432.849                                  
  25292995.951      709872.4802                                 
  38607686.170      711109.0472                                 
  38710083.306      737386.8942                                 
 18  5 14 13 58 54.0000000  0 10G29G31G25G26S20G21G 5G23S23S25
  20214307.073      883901.904                                  
  21166364.202      884889.229                                  
  21762724.486     1066679.522                                  
  22043261.184      433996.677                                  
