     2.11           OBSERVATION DATA    M (MIXED)           RINEX VERSION / TYPE
CONVBIN 2.4.2                           20180507 145943 UTC PGM / RUN BY / DATE 
log: 140400.ubx                                             COMMENT             
format: u-blox                                              COMMENT             
                                                            MARKER NAME         
                                                            MARKER NUMBER       
                                                            OBSERVER / AGENCY   
                                                            REC # / TYPE / VERS 
                                                            ANT # / TYPE        
  4146531.6697   613364.4482  4791464.2255                  APPROX POSITION XYZ 
        0.0000        0.0000        0.0000                  ANTENNA: DELTA H/E/N
     1     1                                                WAVELENGTH FACT L1/2
     4    C1    L1    C2    L2                              # / TYPES OF OBSERV 
  2018     5     7    14     4   19.9990000     GPS         TIME OF FIRST OBS   
  2018     5     7    14    13   48.0000000     GPS         TIME OF LAST OBS    
                                                            END OF HEADER       
 18  5  7 14  4 19.9990000  0  9G25G 2S23G31S36G21G29G 5G26
  20880788.565      213430.909                                  
  23809050.002      233118.832                                  
  38325569.724      177653.0523                                 
  20732745.009      114881.5243                                 
  37965165.273      167895.9392                                 
  23083263.582       33932.390                                  
  19752848.440      164732.237                                  
  24206749.198      128877.1133                                 
  22508823.590       97112.817                                  
 18  5  7 14  4 20.9990000  0  9G25G 2S23G31S36G21G29G 5G26
  20881937.513      219468.065                                  
  23810320.980      239800.630                                  
  38326342.768      181715.3852                                 
  20733540.137      119061.2272                                 
  37965936.921      171953.7782                                 
  23083431.497       34816.263                                  
  19753687.290      169140.082                                  
  24207148.599      130972.7433                                 
  22509036.500       98234.190                                  
 18  5  7 14  4 21.9990000  0  9G25G 2S23G31S36G21G29G 5G26
  20883084.080      225494.302                                  
  23811590.562      246471.442                                  
  38327113.379      185766.4112                                 
  20734333.703      123230.3402                                 
  37966707.340      176000.2462                                 
  23083597.082       35689.105                                  
  19754524.359      173537.106                                  
  24207546.141      133057.6032                                 
  22509247.282       99344.472                                  
 18  5  7 14  4 22.9990000  0  9G25G 2S23G31S36G21G29G 5G26
  20884224.198      231488.160                                  
  23812853.059      253109.816                                  
  38327878.117      189784.6782                                 
  20735120.665      127367.2782                                 
  37967470.830      180013.8732                                 
  23083756.630       36529.447                                  
  19755354.248      177901.871                                  
  24207936.991      135110.0463                                 
  22509452.165      100422.133                                  
 18  5  7 14  4 23.9990000  0  9G25G 2S23G31S36G21G29G 5G26
  20885357.974      237445.672                                  
  23814109.501      259711.778                                  
  38328635.832      193766.2462                                 
  20735901.283      131468.1542                                 
  37968227.629      183990.7512                                 
  23083909.240       37333.288                                  
  19756178.378      182230.401                                  
  24208319.701      137126.2212                                 
  22509650.547      101463.280                                  
 18  5  7 14  4 24.9990000  0  9G25G 2S23G31S36G21G29G 5G26
  20886486.541      243377.376                                  
  23815361.702      266287.861                                  
  38329388.154      197721.6753                                 
  20736676.727      135543.4502                                 
  37968980.196      187941.4342                                 
  23084056.983       38111.6673                                 
  19756996.880      186533.224                                  
  24208697.533      139116.5623                                 
  22509843.730      102478.377                                  
 18  5  7 14  4 25.9990000  0  8G25G 2G31S36G21G29G 5G26
  20887614.305      249304.322                                  
  23816611.417      272859.124                                  
  20737451.150      139614.2392                                 
  37969731.000      191886.9212                                 
  23084204.175       38884.6162                                 
  19757815.139      190831.403                                  
  24209075.103      141102.3143                                 
  22510035.133      103488.509                                  
 18  5  7 14  4 26.9990000  0  8G25G 2G31S36G21G29G 5G26
  20888741.187      255224.509                                  
  23817860.757      279423.581                                  
  20738224.727      143678.5482                                 
  37970480.129      195825.2912                                 
  23084350.321       39650.6662                                 
  19758631.381      195122.935                                  
  24209450.911      143081.2052                                 
  22510226.500      104491.667                                  
 18  5  7 14  4 27.9990000  0  8G25G 2G31S36G21G29G 5G26
  20889861.971      261114.002                                  
  23819103.945      285957.257                                  
  20738992.022      147712.4282                                 
  37971223.700      199732.6352                                 
  23084489.853       40385.8752                                 
  19759441.857      199383.883                                  
  24209821.161      145029.6153                                 
  22510411.735      105463.930                                  
 18  5  7 14  4 28.9990000  0  8G25G 2G31S36G21G29G 5G26
  20890976.595      266972.074                                  
  23820341.593      292459.445                                  
  20739753.532      151715.2082                                 
  37971960.920      203608.1422                                 
  23084623.696       41089.4922                                 
  19760247.062      203613.531                                  
  24210186.141      146946.6382                                 
  22510591.611      106404.549                                  
 18  5  7 14  4 29.9990000  0  8G25G 2G31S36G21G29G 5G26
  20892087.310      272809.373                                  
  23821575.655      298940.784                                  
  20740511.927      155697.3922                                 
  37972694.588      207462.4633                                 
  23084753.944       41772.2002                                 
  19761047.425      207822.519                                  
  24210546.453      148842.8513                                 
  22510766.532      107324.184                                  
 18  5  7 14  4 30.9990000  0  8G25G 2G31S36G21G29G 5G26
  20893198.400      278646.238                                  
  23822809.412      305421.617                                  
  20741270.366      159678.936                                  
  37973427.942      211315.9762                                 
  23084883.887       42454.2912                                 
  19761848.503      212031.159                                  
  24210907.358      150738.6593                                 
  22510942.151      108243.194                                  
 18  5  7 14  4 31.9990000  0  8G25G 2G31S36G21G29G 5G26
  20894307.903      284477.484                                  
  23824040.804      311896.779                                  
  20742027.225      163655.595                                  
  37974160.206      215163.4172                                 
  23085012.478       43130.5722                                 
  19762648.535      216234.279                                  
  24211266.257      152628.9393                                 
  22511115.676      109156.335                                  
 18  5  7 14  4 32.9990000  0  8G25G 2G31S36G21G29G 5G26
  20895412.807      290283.924                                  
  23825267.720      318347.046                                  
  20742779.495      167607.739                                  
  37974886.972      218985.6372                                 
  23085136.331       43781.9852                                 
  19763442.843      220412.713                                  
  24211620.715      154494.3713                                 
  22511284.062      110044.472                                  
 18  5  7 14  4 33.9990000  0  8G25G 2G31S36G21G29G 5G26
  20896513.261      296069.199                                  
  23826490.413      324776.103                                  
  20743527.551      171538.927                                  
  37975610.415      222786.3192                                 
  23085256.118       44412.0822                                 
  19764234.498      224570.105                                  
  24211970.146      156338.7353                                 
  22511448.923      110911.247                                  
 18  5  7 14  4 34.9990000  0  7G25G 2G31S36G21G29G26
  20897614.797      301853.732                                  
  23827713.996      331204.317                                  
  20744275.817      175469.650                                  
  37976333.089      226585.8962                                 
  23085375.608       45041.2092                                 
  19765025.569      228726.851                                  
  22511613.950      111777.083                                  
 18  5  7 14  4 35.9990000  0  8G25G 2G31S36G21G29G 5G26
  20898715.548      307636.317                                  
  23828936.811      337630.557                                  
  20745023.907      179398.692                                  
  37977055.572      230383.2472                                 
  23085494.802       45668.2862                                 
  19765816.090      232881.779                                  
  24212669.394      160024.3683                                 
  22511777.938      112640.770                                  
 18  5  7 14  4 36.9990000  0  7G25G 2G31S36G21G29G26
  20899810.733      313395.661                                  
  23830155.857      344033.445                                  
  20745766.903      183304.699                                  
  37977773.535      234156.9492                                 
  23085609.337       46271.442                                  
  19766601.690      237013.539                                  
  22511937.372      113480.933                                  
 18  5  7 14  4 37.9990000  0  8G25G 2G31S36G21G29G26G12
  20900902.131      319131.256                                  
  23831369.537      350412.546                                  
  20746505.440      187187.267                                  
  37978487.519      237906.4852                                 
  23085718.985       46851.256                                  
  19767383.512      241121.669                                  
  22512092.574      114297.224                                  
  23863115.593       89289.8112                                 
 18  5  7 14  4 38.9990000  0  8G25G 2G31S36G21G29G26G12
  20901992.673      324864.175                                  
  23832582.921      356788.901                                  
  20747243.715      191067.416                                  
  37979199.741      241652.9652                                 
  23085828.651       47428.206                                  
  19768164.837      245227.228                                  
  22512247.541      115110.590                                  
  23864458.693       96348.3442                                 
 18  5  7 14  4 39.9990000  0  8G25G 2G31S36G21G29G26G12
  20903084.062      330596.844                                  
  23833796.671      363164.932                                  
  20747981.868      194947.515                                  
  37979912.600      245398.8362                                 
  23085938.177       48004.721                                  
  19768946.353      249332.657                                  
  22512402.010      115923.488                                  
  23865801.051      103406.4472                                 
 18  5  7 14  4 40.9990000  0  8G25G 2G31S36G21G29G26G12
  20904169.806      336308.458                                  
  23835006.049      369519.842                                  
  20748715.963      198806.878                                  
  37980621.332      249123.2542                                 
  23086043.699       48560.116                                  
  19769722.626      253417.146                                  
  22512552.623      116715.135                                  
  23867139.395      110443.1442                                 
 18  5  7 14  4 41.9990000  0  8G25G 2G31S36G21G29G26G12
  20905251.693      341990.604                                  
  23836209.434      375845.213                                  
  20749445.042      202637.016                                  
  37981324.270      252817.9362                                 
  23086143.514       49085.881                                  
  19770495.095      257472.262                                  
  22512697.172      117477.091                                  
  23868471.929      117450.1562                                 
 18  5  7 14  4 42.9990000  0  8G25G 2G31S36G21G29G26G12
  20906329.061      347657.118                                  
  23837410.384      382154.880                                  
  20750170.701      206451.734                                  
  37982025.054      256496.6283                                 
  23086240.066       49595.799                                  
  19771263.376      261511.843                                  
  22512839.418      118223.198                                  
  23869802.586      124441.2182                                 
 18  5  7 14  4 43.9990000  0  8G25G 2G31S36G21G29G26G12
  20907408.034      353326.339                                  
  23838612.399      388467.197                                  
  20750896.551      210269.454                                  
  37982725.776      260177.5882                                 
  23086337.456       50108.295                                  
  19772032.782      265554.264                                  
  22512982.187      118971.832                                  
  23871134.204      131434.7832                                 
 18  5  7 14  4 44.9990000  0  9G25G 2G31S36G21G29S20G26G12
  20908485.952      358989.540                                  
  23839812.468      394773.404                                  
  20751621.276      214081.448                                  
  37983424.884      263852.3162                                 
  23086433.790       50615.1733                                 
  19772801.202      269590.767                                  
  38424450.929      103453.6982                                 
  22513122.923      119714.236                                  
  23872463.788      138422.0262                                 
 18  5  7 14  4 45.9990000  0  9G25G 2G31S36G21G29S20G26G12
  20909560.466      364638.719                                  
  23841009.448      401065.546                                  
  20752343.942      217879.660                                  
  37984121.383      267512.6142                                 
  23086527.323       51107.3562                                 
  19773566.464      273613.341                                  
  38425126.915      107003.6852                                 
  22513261.460      120442.363                                  
  23873790.938      145394.9692                                 
 18  5  7 14  4 46.9990000  0  9G25G 2G31S36G21G29S20G26G12
  20910632.293      370272.649                                  
  23842203.749      407342.381                                  
  20753063.694      221662.870                                  
  37984815.143      271157.2512                                 
  23086617.113       51584.1642                                 
  19774329.458      277620.816                                  
  38425799.552      110538.3002                                 
  22513396.437      121155.089                                  
  23875115.052      152352.4562                                 
 18  5  7 14  4 47.9990000  0  9G25G 2G31S36G21G29S20G26G12
  20911702.131      375894.635                                  
  23843395.861      413607.167                                  
  20753781.622      225434.365                                  
  37985505.910      274789.4862                                 
  23086704.870       52048.7942                                 
  19775089.938      281616.406                                  
  38426470.076      114060.8652                                 
  22513530.001      121855.613                                  
  23876437.281      159297.6472                                 
 18  5  7 14  4 48.9990000  0  9G25G 2G31S36G21G29S20G26G12
  20912771.263      381514.393                                  
  23844587.676      419869.669                                  
  20754499.463      229203.919                                  
  37986196.371      278419.2232                                 
  23086792.444       52511.1312                                 
  19775849.468      285609.916                                  
  38427139.676      117580.8072                                 
  22513662.797      122553.766                                  
  23877758.760      166240.409                                  
 18  5  7 14  4 49.9990000  0 10G25G 2S23G31S36G21G29S20G26G12
  20913840.001      387133.011                                  
  23845779.535      426130.954                                  
  38347320.722      292417.2642                                 
  20755216.868      232972.556                                  
  37986886.710      282047.3812                                 
  23086880.227       52972.1732                                 
  19776608.936      289602.368                                  
  38427808.822      121098.9852                                 
  22513795.349      123250.535                                  
  23879080.056      173181.740                                  
 18  5  7 14  4 50.9990000  0 10G25G 2S23G31S36G21G29S20G26G12
  20914907.300      392741.884                                  
  23846968.697      432382.445                                  
  38348010.817      296039.7572                                 
  20755932.859      236731.757                                  
  37987575.366      285665.3782                                 
  23086966.292       53423.2942                                 
  19777367.043      293585.175                                  
  38428476.258      124606.9492                                 
  22513925.781      123937.352                                  
  23880398.751      180113.063                                  
 18  5  7 14  4 51.9990000  0 10G25G 2S23G31S36G21G29S20G26G12
  20915971.484      398335.671                                  
  23848156.298      438618.747                                  
  38348697.483      299646.7602                                 
  20756645.046      240476.117                                  
  37988260.889      289267.9322                                 
  23087049.625       53859.1672                                 
  19778122.219      297553.024                                  
  38429140.884      128099.3592                                 
  22514053.604      124608.848                                  
  23881714.969      187029.012                                  
 18  5  7 14  4 52.9990000  0 10G25G 2S23G31S36G21G29S20G26G12
  20917036.288      403932.079                                  
  23849343.794      444857.622                                  
  38349384.053      303255.9902                                 
  20757358.576      244223.337                                  
  37988946.682      292872.6302                                 
  23087133.456       54297.5512                                 
  19778877.534      301523.585                                  
  38429806.017      131593.9812                                 
  22514181.645      125282.789                                  
  23883032.033      193947.340                                  
 18  5  7 14  4 53.9990000  0 10G25G 2S23G31S36G21G29S20G26G12
  20918102.941      409534.804                                  
  23850532.049      451102.746                                  
  38350071.732      306871.1852                                 
  20758072.395      247977.158                                  
  37989633.828      296483.2982                                 
  23087219.451       54742.0982                                 
  19779634.367      305500.598                                  
  38430472.022      135094.8172                                 
  22514310.488      125962.833                                  
  23884349.777      200871.733                                  
 18  5  7 14  4 54.9990000  0 10G25G 2S23G31S36G21G29S20G26G12
  20919166.977      415126.824                                  
  23851718.297      457337.095                                  
  38350756.452      310475.2562                                 
  20758784.905      251720.528                                  
  37990318.584      300082.7852                                 
  23087302.322       55175.267                                  
  19780389.194      309466.978                                  
  38431135.706      138584.5852                                 
  22514437.631      126631.942                                  
  23885665.454      207785.113                                  
 18  5  7 14  4 55.9990000  0 10G25G 2S23G31S36G21G29S20G26G12
  20920229.014      420705.310                                  
  23852901.649      463557.823                                  
  38351438.206      314065.4322                                 
  20759494.849      255450.555                                  
  37991000.940      303668.4582                                 
  23087382.453       55595.221                                  
  19781141.517      313419.942                                  
  38431797.471      142060.2722                                 
  22514562.661      127287.296                                  
  23886977.335      214684.690                                  
 18  5  7 14  4 56.9990000  0 10G25G 2S23G31S36G21G29S20G26G12
  20921289.726      426283.614                                  
  23854085.908      469778.303                                  
  38352120.937      317655.0093                                 
  20760205.911      259180.728                                  
  37991682.911      307253.6522                                 
  23087462.279       56014.834                                  
  19781893.621      317372.830                                  
  38432458.694      145535.4152                                 
  22514687.221      127942.275                                  
  23888289.731      221583.791                                  
 18  5  7 14  4 57.9990000  0 11G25G 2S23G31S36G21G29S20G 5G26G12
  20922352.732      431867.471                                  
  23855270.420      476004.265                                  
  38352804.322      321249.7222                                 
  20760916.868      262916.655                                  
  37992365.791      310844.0712                                 
  23087542.507       56439.912                                  
  19782646.711      321331.371                                  
  38433120.956      149015.7562                                 
  24219799.736      197597.6043                                 
  22514812.871      128602.605                                  
  23889601.952      228488.225                                  
 18  5  7 14  4 58.9990000  0 10G25G 2S23G31S36G21G29S20G26G12
  20923413.287      437440.430                                  
  23856452.463      482219.265                                  
  38353486.094      324833.2072                                 
  20761625.085      266642.040                                  
  37993047.518      314423.2422                                 
  23087620.867       56853.867                                  
  19783397.507      325279.153                                  
  38433780.478      152484.6672                                 
  22514936.585      129251.855                                  
  23890913.371      235381.5033                                 
 18  5  7 14  4 59.9990000  0 10G25G 2S23G31S36G21G29S20G26G12
  20924470.534      442997.223                                  
  23857632.246      488418.038                                  
  38354164.759      328400.1322                                 
  20762329.882      270351.405                                  
  37993725.974      317985.8032                                 
  23087697.133       57251.553                                  
  19784145.563      329210.831                                  
  38434437.715      155936.9842                                 
  22515056.599      129884.659                                  
  23892220.663      242258.2982                                 
 18  5  7 14  5  0.9990000  0 10G25G 2S23G31S36G21G29S20G26G12
  20925527.948      448553.056                                  
  23858812.012      494615.780                                  
  38354842.229      331965.7482                                 
  20763036.232      274060.165                                  
  37994403.924      321546.9703                                 
  23087772.623       57648.177                                  
  19784894.011      333141.693                                  
  38435094.044      159388.2052                                 
  22515177.328      130516.353                                  
  23893527.859      249133.8862                                 
 18  5  7 14  5  1.9990000  0 10G25G 2S23G31S36G21G29S20G26G12
  20926584.916      454109.745                                  
  23859991.550      500814.306                                  
  38355521.496      335531.8132                                 
  20763742.267      277769.988                                  
  37995081.376      325108.6312                                 
  23087848.671       58045.411                                  
  19785641.710      337073.507                                  
  38435751.306      162839.8022                                 
  22515297.464      131148.674                                  
  23894836.311      256010.1282                                 
 18  5  7 14  5  2.9990000  0 10G25G 2S23G31S36G21G29S20G26G12
  20927640.183      459656.495                                  
  23861169.562      507002.817                                  
  38356197.561      339087.5702                                 
  20764445.136      281470.6633                                 
  37995757.049      328659.9182                                 
  23087922.319       58432.630                                  
  19786388.544      340995.484                                  
  38436406.632      166281.1472                                 
  22515415.044      131770.825                                  
  23896142.783      262876.1423                                 
 18  5  7 14  5  3.9990000  0 10G25G 2S23G31S36G21G29S20G26G12
  20928690.782      465180.982                                  
  23862342.452      513168.993                                  
  38356869.429      342620.6182                                 
  20765144.593      285148.8242                                 
  37996428.708      332188.5782                                 
  23087991.684       58797.405                                  
  19787130.492      344895.313                                  
  38437057.088      169699.9052                                 
  22515528.199      132370.547                                  
  23897445.380      269719.5812                                 
 18  5  7 14  5  4.9990000  0 10G25G 2S23G31S36G21G29S20G26G12
  20929737.848      470686.781                                  
  23863511.661      519316.420                                  
  38357537.554      346134.6432                                 
  20765840.787      288808.5122                                 
  37997096.972      335698.1162                                 
  23088057.349       59143.370                                  
  19787868.785      348776.560                                  
  38437703.855      173099.3312                                 
  22515638.075      132951.365                                  
  23898745.317      276544.0362                                 
 18  5  7 14  5  5.9990000  0 10G25G 2S23G31S36G21G29S20G26G12
  20930785.864      476194.283                                  
  23864681.296      525465.512                                  
  38358207.250      349649.8702                                 
  20766537.548      292470.2592                                 
  37997764.949      339208.9822                                 
  23088123.643       59490.912                                  
  19788607.941      352659.633                                  
  38438351.275      176500.1312                                 
  22515748.465      133533.678                                  
  23900045.437      283370.0352                                 
 18  5  7 14  5  6.9990000  0 10G25G 2S23G31S36G21G29S20G26G12
  20931832.842      481699.621                                  
  23865850.461      531612.348                                  
  38358876.928      353162.6953                                 
  20767234.344      296130.0362                                 
  37998432.516      342717.3202                                 
  23088190.032       59836.095                                  
  19789346.539      356540.659                                  
  38438998.198      179898.3892                                 
  22515858.619      134113.624                                  
  23901345.007      290193.5852                                 
 18  5  7 14  5  7.9990000  0 10G25G 2S23G31S36G21G29S20G26G12
  20932875.275      487180.116                                  
  23867014.844      537734.270                                  
  38359540.220      356650.2582                                 
  20767926.228      299765.2322                                 
  37999095.310      346200.3742                                 
  23088250.331       60156.311                                  
  19790079.902      360396.938                                  
  38439639.738      183271.5422                                 
  22515963.905      134668.497                                  
  23902638.993      296992.0152                                 
 18  5  7 14  5  8.9990000  0 10G25G 2S23G31S36G21G29S20G26G12
  20933913.737      492634.624                                  
  23868175.144      543830.128                                  
  38360198.241      360111.5282                                 
  20768613.749      303374.6902                                 
  37999752.686      349657.1512                                 
  23088306.399       60450.384                                  
  19790809.007      364227.332                                  
  38440276.601      186618.3882                                 
  22516064.480      135197.219                                  
  23903927.464      303764.2052                                 
 18  5  7 14  5  9.9990000  0 10G25G 2S23G31S36G21G29S20G26G12
  20934950.036      498083.115                                  
  23869334.589      549919.903                                  
  38360855.896      363566.3123                                 
  20769300.764      306978.3832                                 
  38000408.902      353107.4912                                 
  23088361.218       60738.302                                  
  19791536.655      368051.808                                  
  38440911.972      189958.6822                                 
  22516164.940      135719.650                                  
  23905214.400      310530.0432                                 
 18  5  7 14  5 10.9990000  0 10G25G 2S23G31S36G21G29S20G26G12
  20935988.420      503538.299                                  
  23870495.194      556016.300                                  
  38361514.407      367027.4152                                 
  20769988.259      310589.0532                                 
  38001067.002      356564.1472                                 
  23088417.530       61032.731                                  
  19792266.065      371883.084                                  
  38441548.862      193305.1742                                 
  22516266.178      136248.556                                  
  23906503.247      317302.2922                                 
 18  5  7 14  5 11.9990000  0 10G25G 2S23G31S36G21G29S20G26G12
  20937024.901      508985.604                                  
  23871653.985      562104.780                                  
  38362170.674      370480.2242                                 
  20770674.288      314192.1262                                 
  38001723.662      360012.5382                                 
  23088471.670       61319.182                                  
  19792993.713      375706.617                                  
  38442184.442      196643.4942                                 
  22516365.295      136769.481                                  
  23907790.777      324066.5012                                 
 18  5  7 14  5 12.9990000  0 11G25G 2S23G31S36G21G29S20G 5G26G12
  20938057.631      514416.340                                  
  23872809.809      568176.576                                  
  38362824.682      373916.0922                                 
  20771357.202      317778.301                                  
  38002376.414      363444.0432                                 
  23088522.738       61588.862                                  
  19793717.731      379513.654                                  
  38442817.135      199964.8382                                 
  24224269.313      221057.9783                                 
  22516461.184      137273.563                                  
  23909074.816      330813.837                                  
 18  5  7 14  5 13.9990000  0 11G25G 2S23G31S36G21G29S20G 5G26G12
  20939089.873      519841.742                                  
  23873964.114      574242.958                                  
  38363476.875      377346.2223                                 
  20772038.083      321359.954                                  
  38003029.113      366869.8292                                 
  23088573.265       61853.108                                  
  19794441.715      383315.492                                  
  38443449.016      203280.8372                                 
  24224558.542      222544.6233                                 
  22516556.209      137772.106                                  
  23910358.498      337555.484                                  
 18  5  7 14  5 14.9990000  0 11G25G 2S23G31S36G21G29S20G 5G26G12
  20940123.057      525272.517                                  
  23875119.284      580314.673                                  
  38364131.206      380781.3503                                 
  20772720.596      324947.209                                  
  38003681.925      370300.6252                                 
  23088625.232       62122.601                                  
  19795166.527      387122.801                                  
  38444080.670      206601.6332                                 
  24224843.643      224036.5222                                 
  22516652.107      138275.767                                  
  23911643.244      344302.342                                  
 18  5  7 14  5 15.9990000  0 11G25G 2S23G31S36G21G29S20G 5G26G12
  20941155.473      530697.646                                  
  23876273.843      586380.671                                  
  38364783.434      384210.4573                                 
  20773402.106      328529.191                                  
  38004333.447      373725.4292                                 
  23088675.994       62386.256                                  
  19795890.257      390924.576                                  
  38444710.893      209915.9162                                 
  24225126.372      225522.9503                                 
  22516746.486      138773.696                                  
  23912926.105      351043.2733                                 
 18  5  7 14  5 16.9990000  0 11G25G 2S23G31S36G21G29S20G 5G26G12
  20942184.215      536105.380                                  
  23877424.466      592429.208                                  
  38365431.945      387621.8262                                 
  20774079.907      332093.943                                  
  38004981.016      377132.3852                                 
  23088722.900       62632.371                                  
  19796609.808      394709.057                                  
  38445338.002      213212.6652                                 
  24225406.971      226991.9373                                 
  22516837.716      139253.986                                  
  23914205.721      357766.4892                                 
 18  5  7 14  5 17.9990000  0 11G25G 2S23G31S36G21G29S20G 5G26G12
  20943211.178      541503.507                                  
  23878573.293      598468.068                                  
  38366078.476      391023.2333                                 
  20774755.379      335649.352                                  
  38005627.197      380529.3792                                 
  23088768.088       62868.754                                  
  19797328.016      398484.040                                  
  38445963.034      216499.8062                                 
  24225683.278      228451.3363                                 
  22516927.724      139724.396                                  
  23915482.850      364479.8552                                 
 18  5  7 14  5 18.9990000  0 11G25G 2S23G31S36G21G29S20G 5G26G12
  20944239.834      546907.211                                  
  23879723.803      604512.386                                  
  38366726.586      394429.8742                                 
  20775432.177      339210.577                                  
  38006274.618      383931.4492                                 
  23088814.296       63110.507                                  
  19798047.759      402264.696                                  
  38446590.221      219792.0012                                 
  24225958.616      229916.4452                                 
  22517018.518      140200.204                                  
  23916761.210      371198.5353                                 
 18  5  7 14  5 19.9990000  0 11G25G 2S23G31S36G21G29S20G 5G26G12
  20945268.201      552308.725                                  
  23880874.270      610554.493                                  
  38367374.067      397833.7902                                 
  20776108.757      342769.896                                  
  38006921.873      387330.9732                                 
  23088860.792       63349.965                                  
  19798766.620      406043.277                                  
  38447215.776      223081.4982                                 
  24226237.811      231379.3213                                 
  22517108.631      140673.620                                  
  23918038.801      377914.7572                                 
 18  5  7 14  5 20.9990000  0 11G25G 2S23G31S36G21G29S20G 5G26G12
  20946292.127      557693.662                                  
  23882020.618      616579.960                                  
  38368017.850      401220.8412                                 
  20776782.571      346312.926                                  
  38007565.541      390713.5412                                 
  23088903.231       63572.710                                  
  19799482.201      409805.400                                  
  38447838.313      226353.9472                                 
  24226513.167      232825.7823                                 
  22517194.983      141130.284                                  
  23919313.539      384614.1762                                 
 18  5  7 14  5 21.9990000  0 11G25G 2S23G31S36G21G29S20G 5G26G12
  20947314.204      563066.470                                  
  23883164.907      622593.212                                  
  38368659.930      404595.3192                                 
  20777454.334      349844.001                                  
  38008206.889      394083.6162                                 
  23088943.628       63783.220                                  
  19800195.802      413555.488                                  
  38448458.851      229613.9852                                 
  24226786.638      234260.1342                                 
  22517279.119      141574.542                                  
  23920584.701      391301.1492                                 
 18  5  7 14  5 22.9990000  0 11G25G 2S23G31S36G21G29S20G 5G26G12
  20948336.726      568444.032                                  
  23884310.785      628611.128                                  
  38369302.796      407974.1893                                 
  20778127.607      353380.170                                  
  38008849.424      397458.0972                                 
  23088985.125       63998.276                                  
  19800910.676      417310.445                                  
  38449080.149      232878.5332                                 
  24227060.214      235699.2692                                 
  22517365.027      142023.402                                  
  23921857.991      397992.6052                                 
 18  5  7 14  5 23.9990000  0 11G25G 2S23G31S36G21G29S20G 5G26G12
  20949359.413      573822.696                                  
  23885455.859      634630.080                                  
  38369946.326      411353.8242                                 
  20778800.837      356917.684                                  
  38009491.705      400833.2472                                 
  23089026.744       64214.325                                  
  19801625.647      421066.611                                  
  38449701.699      236143.6912                                 
  24227334.365      237139.5922                                 
  22517450.873      142473.123                                  
  23923131.996      404684.9382                                 
 18  5  7 14  5 24.9990000  0 11G25G 2S23G31S36G21G29S20G 5G26G12
  20950378.698      579179.115                                  
  23886596.205      640626.729                                  
  38370585.632      414710.7672                                 
  20779470.201      360433.155                                  
  38010128.952      404185.7952                                 
  23089063.433       64407.948                                  
  19802336.062      424800.635                                  
  38450318.634      239386.1672                                 
  24227604.180      238557.6842                                 
  22517531.676      142900.396                                  
  23924402.145      411354.7432                                 
 18  5  7 14  5 25.9990000  0 11G25G 2S23G31S36G21G29S20G 5G26G12
  20951395.592      584522.787                                  
  23887735.948      646610.555                                  
  38371223.498      418054.5732                                 
  20780137.297      363936.225                                  
  38010764.079      407525.1562                                 
  23089097.923       64588.709                                  
  19803044.157      428522.021                                  
  38450932.873      242615.5532                                 
  24227872.364      239963.1253                                 
  22517610.359      143314.758                                  
  23925669.816      418011.5292                                 
 18  5  7 14  5 26.9990000  0 11G25G 2S23G31S36G21G29S20G 5G26G12
  20952414.458      589877.184                                  
  23888877.158      652605.040                                  
  38371863.092      421408.7732                                 
  20780805.492      367450.212                                  
  38011401.727      410874.7422                                 
  23089134.333       64780.064                                  
  19803754.460      432254.254                                  
  38451549.075      245855.4632                                 
  24228142.354      241379.3432                                 
  22517691.337      143739.597                                  
  23926937.138      424678.7582                                 
 18  5  7 14  5 27.9990000  0 11G25G 2S23G31S36G21G29S20G 5G26G12
  20953435.130      595242.538                                  
  23890019.484      658610.414                                  
  38372503.664      424773.5342                                 
  20781475.571      370975.466                                  
  38012041.278      414234.9642                                 
  23089173.090       64982.217                                  
  19804466.673      435997.546                                  
  38452167.476      249105.6922                                 
  24228414.551      242806.5172                                 
  22517774.514      144175.234                                  
  23928207.924      431356.7162                                 
 18  5  7 14  5 28.9990000  0 11G25G 2S23G31S36G21G29S20G 5G26G12
  20954454.144      600601.894                                  
  23891162.019      664609.728                                  
  38373142.804      428131.8982                                 
  20782146.497      374494.998                                  
  38012679.458      417588.7712                                 
  23089210.669       65178.214                                  
  19805177.848      439734.938                                  
  38452784.376      252349.5132                                 
  24228685.370      244227.8433                                 
  22517856.922      144604.666                                  
  23929476.939      438028.3913                                 
 18  5  7 14  5 29.9990000  0 11G25G 2S23G31S36G21G29S20G 5G26G12
  20955472.225      605951.791                                  
  23892302.068      670599.532                                  
  38373780.208      431480.4722                                 
  20782815.216      378005.329                                  
  38013315.667      420932.8582                                 
  23089246.189       65364.652                                  
  19805887.208      443463.024                                  
  38453399.514      255583.5432                                 
  24228953.239      245639.7892                                 
  22517937.481      145024.425                                  
  23930744.444      444690.3692                                 
 18  5  7 14  5 30.9990000  0 11G25G 2S23G31S36G21G29S20G 5G26G12
  20956491.309      611305.692                                  
  23893442.047      676593.229                                  
  38374418.310      434832.6432                                 
  20783484.109      381519.888                                  
  38013952.618      424280.4792                                 
  23089281.875       65554.912                                  
  19806597.440      447195.180                                  
  38454015.262      258821.0932                                 
  24229222.522      247055.7022                                 
  22518017.508      145447.931                                  
  23932013.049      451356.0442                                 
 18  5  7 14  5 31.9990000  0 11G25G 2S23G31S36G21G29S20G 5G26G12
  20957511.256      616669.078                                  
  23894584.365      682596.384                                  
  38375058.533      438193.7992                                 
  20784154.599      385044.256                                  
  38014591.226      427637.2202                                 
  23089319.532       65754.521                                  
  19807309.505      450936.958                                  
  38454633.279      262067.9222                                 
  24229493.088      248481.2142                                 
  22518100.362      145880.810                                  
  23933282.727      458031.0002                                 
 18  5  7 14  5 32.9990000  0 11G25G 2S23G31S36G21G29S20G 5G26G12
  20958530.253      622028.021                                  
  23895725.242      688594.974                                  
  38375697.403      441550.1962                                 
  20784824.922      388564.394                                  
  38015229.467      430989.0582                                 
  23089356.684       65949.533                                  
  19808020.750      454674.374                                  
  38455250.720      265309.7972                                 
  24229762.912      249902.3283                                 
  22518182.753      146308.957                                  
  23934552.614      464701.1542                                 
 18  5  7 14  5 33.9990000  0 11G25G 2S23G31S36G21G29S20G 5G26G12
  20959547.156      627376.387                                  
  23896864.140      694582.922                                  
  38376334.135      444895.6412                                 
  20785493.292      392074.234                                  
  38015865.266      434330.0052                                 
  23089391.462       66133.803                                  
  19808729.927      458401.333                                  
  38455865.308      268540.6142                                 
  24230030.214      251312.8873                                 
  22518261.610      146726.321                                  
  23935821.349      471360.5032                                 
 18  5  7 14  5 34.9990000  0 11G25G 2S23G31S36G21G29S20G 5G26G12
  20960565.219      632724.624                                  
  23898003.159      700570.655                                  
  38376971.138      448240.5992                                 
  20786161.452      395584.158                                  
  38016501.318      437670.3892                                 
  23089426.197       66317.806                                  
  19809439.121      462128.255                                  
  38456480.062      271771.0592                                 
  24230297.360      252723.3613                                 
  22518340.764      147143.389                                  
  23937088.680      478019.4422                                 
 18  5  7 14  5 35.9990000  0 11G25G 2S23G31S36G21G29S20G 5G26G12
  20961585.533      638080.605                                  
  23899144.822      706566.056                                  
  38377610.383      451592.8982                                 
  20786831.889      399102.057                                  
  38017138.469      441018.1572                                 
  23089462.292       66509.424                                  
  19810149.563      465863.033                                  
  38457096.238      275008.8322                                 
  24230566.643      254141.6523                                 
  22518421.533      147567.964                                  
  23938357.730      484685.8322                                 
 18  5  7 14  5 36.9990000  0 11G25G 2S23G31S36G21G29S20G 5G26G12
  20962604.992      643438.307                                  
  23900286.485      712563.153                                  
  38378248.982      454946.6112                                 
  20787502.144      402622.013                                  
  38017775.629      444367.2952                                 
  23089499.269       66702.587                                  
  19810860.581      469599.653                                  
  38457712.867      278248.0032                                 
  24230837.008      255561.7642                                 
  22518503.523      147994.081                                  
  23939627.373      491353.722                                  
 18  5  7 14  5 37.9990000  0 11G25G 2S23G31S36G21G29S20G 5G26G12
  20963623.143      648791.397                                  
  23901425.958      718555.544                                  
  38378886.831      458295.3012                                 
  20788171.159      406137.531                                  
  38018411.393      447711.4482                                 
  23089535.278       66891.021                                  
  19811570.534      473331.770                                  
  38458327.935      281482.2302                                 
  24231107.320      256977.3132                                 
  22518583.384      148415.425                                  
  23940895.986      498016.734                                  
 18  5  7 14  5 38.9990000  0 11G25G 2S23G31S36G21G29S20G 5G26G12
  20964640.997      654144.073                                  
  23902566.199      724547.426                                  
  38379524.052      461643.1352                                 
  20788840.156      409652.914                                  
  38019047.627      451054.7992                                 
  23089570.519       67078.886                                  
  19812280.671      477063.514                                  
  38458942.986      284715.5832                                 
  24231376.891      258392.5212                                 
  22518663.279      148836.5343                                 
  23942163.832      504679.005                                  
 18  5  7 14  5 39.9990000  0 11G25G 2S23G31S36G21G29S20G 5G26G12
  20965661.101      659502.990                                  
  23903708.028      730545.522                                  
  38380161.727      464996.8562                                 
  20789510.306      413174.882                                  
  38019684.587      454403.9902                                 
  23089607.696       67272.880                                  
  19812992.265      480801.692                                  
  38459560.113      287954.6642                                 
  24231647.186      259813.9982                                 
  22518744.100      149263.2012                                 
  23943432.358      511347.338                                  
 18  5  7 14  5 40.9990000  0 11G25G 2S23G31S36G21G29S20G 5G26G12
  20966682.271      664864.895                                  
  23904850.677      736546.514                                  
  38380800.440      468353.2182                                 
  20790181.084      416700.082                                  
  38020322.122      457755.7062                                 
  23089645.310       67469.702                                  
  19813704.373      484542.942                                  
  38460176.856      291196.1952                                 
  24231918.232      261238.4903                                 
  22518826.230      149692.7292                                 
  23944701.678      518018.353                                  
 18  5  7 14  5 41.9990000  0 10G25G 2S23G31S36G21G29S20G26G12
  20967699.566      670213.952                                  
  23905990.953      742534.603                                  
  38381435.907      471696.3352                                 
  20790848.406      420212.689                                  
  38020958.095      461094.1942                                 
  23089679.923       67653.530                                  
  19814413.620      488271.449                                  
  38460791.156      294424.6422                                 
  22518905.349      150109.1542                                 
  23945968.564      524676.258                                  
 18  5  7 14  5 42.9990000  0 10G25G 2S23G31S36G21G29S20G26G12
  20968714.383      675551.013                                  
  23907128.585      748510.565                                  
  38382068.774      475026.9552                                 
  20791514.036      423713.499                                  
  38021591.049      464420.3032                                 
  23089711.551       67825.190                                  
  19815120.676      491988.038                                  
  38461403.388      297641.0682                                 
  22518982.252      150513.3822                                 
  23947233.321      531321.913                                  
 18  5  7 14  5 43.9990000  0 10G25G 2S23G31S36G21G29S20G26G12
  20969730.553      680891.961                                  
  23908265.990      754490.438                                  
