     2.11           OBSERVATION DATA    M (MIXED)           RINEX VERSION / TYPE
CONVBIN 2.4.2                           20180507 151807 UTC PGM / RUN BY / DATE 
log: 144430.ubx                                             COMMENT             
format: u-blox                                              COMMENT             
                                                            MARKER NAME         
                                                            MARKER NUMBER       
                                                            OBSERVER / AGENCY   
                                                            REC # / TYPE / VERS 
                                                            ANT # / TYPE        
  4146379.5741   613424.9922  4791598.7139                  APPROX POSITION XYZ 
        0.0000        0.0000        0.0000                  ANTENNA: DELTA H/E/N
     1     1                                                WAVELENGTH FACT L1/2
     4    C1    L1    C2    L2                              # / TYPES OF OBSERV 
  2018     5     7    14    44   49.0010000     GPS         TIME OF FIRST OBS   
  2018     5     7    14    57   53.0000000     GPS         TIME OF LAST OBS    
                                                            END OF HEADER       
 18  5  7 14 44 49.0010000  0  5G29G31G26G21G25
  20793631.637       47227.5542                                 
  21764438.344       49947.7822                                 
  21895872.782       14611.9542                                 
  22403033.870       14209.5452                                 
  22619297.996       60634.3182                                 
 18  5  7 14 44 50.0010000  0  5G29G31G26G21G25
  20794457.739       51572.1882                                 
  21765303.640       54496.0652                                 
  21895982.562       15191.6102                                 
  22403134.619       14745.9652                                 
  22620391.802       66380.1202                                 
 18  5  7 14 44 51.0010000  0  5G29G31G26G21G25
  20795280.081       55895.4932                                 
  21766164.695       59023.2062                                 
  21896089.008       15749.8562                                 
  22403232.410       15261.0972                                 
  22621481.114       72104.5112                                 
 18  5  7 14 44 52.0010000  0  5G29G31G26G21G25
  20796098.566       60197.9932                                 
  21767022.320       63529.7402                                 
  21896191.310       16287.1422                                 
  22403326.222       15755.4502                                 
  22622565.270       77808.0172                                 
 18  5  7 14 44 53.0010000  0  5G29G31G26G21G25
  20796911.842       64472.1822                                 
  21767874.868       68008.1382                                 
  21896288.237       16796.1092                                 
  22403414.119       16221.5272                                 
  22623645.404       83483.1342                                 
 18  5  7 14 44 54.0010000  0  5G29G31G26G21G25
  20797718.932       68716.9422                                 
  21768721.701       72457.3002                                 
  21896379.066       17275.5992                                 
  22403496.336       16658.1862                                 
  22624719.560       89128.7762                                 
 18  5  7 14 44 55.0010000  0  6G29G31G26G21G25S20
  20798522.663       72942.6732                                 
  21769563.805       76887.5932                                 
  21896466.640       17736.0002                                 
  22403575.446       17075.8222                                 
  22625789.678       94755.2642                                 
  38978849.093       47871.1572                                 
 18  5  7 14 44 56.0010000  0  7G29G31G26G21G 4G25S20
  20799324.544       77152.5562                                 
  21770402.759       81302.2502                                 
  21896550.549       18180.4602                                 
  22403651.748       17477.6562                                 
  20820690.311       28824.8912                                 
  22626856.750      100365.8552                                 
  38979356.851       50540.3512                                 
 18  5  7 14 44 57.0010000  0  7G29G31G26G21G 4G25S20
  20800121.338       81339.1142                                 
  21771238.633       85693.7512                                 
  21896629.241       18601.5612                                 
  22403723.991       17856.1632                                 
  20820928.507       30073.5992                                 
  22627919.686      105953.0042                                 
  38979860.543       53185.9012                                 
 18  5  7 14 44 58.0010000  0  6G29G31G26G21G25S20
  20800912.566       85500.5162                                 
  21772069.648       90060.3092                                 
  21896704.643       18997.4232                                 
  22403791.218       18209.5672                                 
  22628976.899      111514.9602                                 
  38980358.642       55805.8152                                 
 18  5  7 14 44 59.0010000  0  6G29G31G26G21G25S20
  20801701.979       89646.1432                                 
  21772897.800       94411.2682                                 
  21896777.524       19377.5322                                 
  22403855.287       18547.2032                                 
  22630032.297      117061.0412                                 
  38980853.539       58409.5952                                 
 18  5  7 14 45  0.0010000  0  6G29G31G26G21G25S20
  20802488.295       93779.9542                                 
  21773723.012       98750.5962                                 
  21896847.936       19745.6712                                 
  22403917.096       18873.0412                                 
  22631085.819      122595.2152                                 
  38981346.298       61001.1072                                 
 18  5  7 14 45  1.0010000  0  6G29G31G26G21G25S20
  20803271.207       97895.267                                  
  21774544.978      103071.6162                                 
  21896913.793       20095.2622                                 
  22403975.222       19180.3972                                 
  22632135.694      128110.8212                                 
  38981835.829       63573.6492                                 
 18  5  7 14 45  2.0010000  0  6G29G31G26G21G25S20
  20804050.211      101989.601                                  
  21775362.573      107371.8432                                 
  21896976.832       20423.8692                                 
  22404029.327       19466.8202                                 
  22633181.546      133605.3752                                 
  38982321.207       66124.9652                                 
 18  5  7 14 45  3.0010000  0  6G29G31G26G21G25S20
  20804825.411      106067.946                                  
  21776178.345      111656.2662                                 
  21897036.468       20736.3382                                 
  22404080.587       19737.2752                                 
  22634223.778      139083.8592                                 
  38982803.513       68659.8912                                 
 18  5  7 14 45  4.0010000  0  6G29G31G26G21G25S20
  20805599.442      110135.897                                  
  21776991.412      115930.4752                                 
  21897093.067       21038.3802                                 
  22404130.154       19997.3532                                 
  22635264.090      144551.8552                                 
  38983283.708       71184.1602                                 
 18  5  7 14 45  5.0010000  0  6G29G31G26G21G25S20
  20806370.462      114189.401                                  
  21777801.948      120190.4592                                 
  21897148.158       21325.9322                                 
  22404176.833       20243.0142                                 
  22636301.776      150005.3572                                 
  38983761.382       73693.4872                                 
 18  5  7 14 45  6.0010000  0  6G29G31G26G21G25S20
  20807138.298      118224.372                                  
  21778608.288      124432.0702                                 
  21897199.261       21594.8722                                 
  22404220.616       20470.1512                                 
  22637336.059      155440.2282                                 
  38984235.731       76184.2412                                 
 18  5  7 14 45  7.0010000  0  6G29G31G26G21G25S20
  20807903.446      122244.920                                  
  21779412.621      128659.447                                  
  21897247.423       21849.274                                  
  22404260.682       20682.390                                  
  22638367.341      160860.100                                  
  38984706.861       78660.0442                                 
 18  5  7 14 45  8.0010000  0  6G29G31G26G21G25S20
  20808666.274      126255.308                                  
  21780214.964      132876.846                                  
  21897293.536       22093.504                                  
  22404298.679       20885.010                                  
  22639397.261      166270.227                                  
  38985175.766       81124.9062                                 
 18  5  7 14 45  9.0010000  0  6G29G31G26G21G25S20
  20809426.318      130253.263                                  
  21781015.362      137082.017                                  
  21897336.751       22325.251                                  
  22404334.051       21075.207                                  
  22640424.634      171667.854                                  
  38985642.210       83576.9252                                 
 18  5  7 14 45 10.0010000  0  7G29G31G26G21G25G 5S20
  20810183.623      134233.481                                  
  21781812.401      141269.613                                  
  21897377.427       22539.217                                  
  22404366.404       21247.686                                  
  22641448.910      177047.654                                  
  24210694.579       74559.6303                                 
  38986105.304       86011.0792                                 
 18  5  7 14 45 11.0010000  0  7G29G31G26G21G25S20S23
  20810938.554      138198.456                                  
  21782607.092      145442.157                                  
  21897415.722       22737.864                                  
  22404395.703       21404.952                                  
  22642470.000      182412.136                                  
  38986565.038       88429.5792                                 
  38959128.052      120820.3622                                 
 18  5  7 14 45 12.0010000  0  7G29G31G26G21G25S20S23
  20811691.191      142154.810                                  
  21783399.411      149606.272                                  
  21897452.315       22927.829                                  
  22404424.286       21553.642                                  
  22643489.050      187767.913                                  
  38987023.325       90839.0772                                 
  38959608.850      123345.4082                                 
 18  5  7 14 45 13.0010000  0  7G29G31G26G21G25S20S23
  20812441.873      146100.412                                  
  21784189.496      153759.818                                  
  21897486.474       23107.002                                  
  22404450.758       21691.582                                  
  22644506.240      193112.854                                  
  38987479.866       93237.5132                                 
  38960087.553      125859.3542                                 
 18  5  7 14 45 14.0010000  0  7G29G31G26G21G25S20S23
  20813188.847      150027.717                                  
  21784975.471      157895.259                                  
  21897516.986       23267.782                                  
  22404473.548       21811.277                                  
  22645520.272      198439.425                                  
  38987932.909       95617.2042                                 
  38960562.129      128354.6112                                 
 18  5  7 14 45 15.0010000  0  7G29G31G26G21G25S20S23
  20813933.858      153939.073                                  
  21785760.102      162014.945                                  
  21897544.801       23412.553                                  
  22404493.372       21915.041                                  
  22646530.623      203749.944                                  
  38988382.653       97980.3702                                 
  38961033.948      130833.4952                                 
 18  5  7 14 45 16.0010000  0  7G29G31G26G21G25S20S23
  20814676.565      157843.295                                  
  21786542.239      166127.658                                  
  21897570.261       23550.165                                  
  22404512.113       22011.686                                  
  22647539.646      209053.281                                  
  38988830.434      100336.0672                                 
  38961503.917      133304.9222                                 
 18  5  7 14 45 17.0010000  0  7G29G31G26G21G25S20S23
  20815417.946      161740.285                                  
  21787323.371      170233.351                                  
  21897595.442       23680.461                                  
  22404529.188       22101.137                                  
  22648547.868      214349.301                                  
  38989277.509      102684.3752                                 
  38961972.124      135768.7152                                 
 18  5  7 14 45 18.0010000  0  7G29G31G26G21G25S20S23
  20816156.710      165622.059                                  
  21788101.320      174324.008                                  
  21897617.237       23795.549                                  
  22404543.523       22175.401                                  
  22649552.808      219630.019                                  
  38989721.059      105017.2622                                 
  38962437.582      138216.9162                                 
 18  5  7 14 45 19.0010000  0  7G29G31G26G21G25S20S23
  20816891.608      169487.075                                  
  21788876.982      178398.061                                  
  21897636.144       23893.706                                  
  22404555.669       22232.889                                  
  22650554.678      224893.876                                  
  38990160.804      107332.5632                                 
  38962899.481      140647.9442                                 
 18  5  7 14 45 20.0010000  0  7G29G31G26G21G25S20S23
  20817625.887      173343.921                                  
  21789650.995      182464.175                                  
  21897652.766       23983.682                                  
  22404564.507       22282.271                                  
  22651554.139      230149.539                                  
  38990599.756      109639.4102                                 
  38963360.341      143070.4392                                 
 18  5  7 14 45 21.0010000  0  8G29G31G26G21G25G 5S20S23
  20818359.085      177194.838                                  
  21790423.446      186524.541                                  
  21897669.064       24067.670                                  
  22404572.020       22325.772                                  
  22652552.632      235399.127                                  
  24214512.303       94599.0763                                 
  38991037.285      111939.9422                                 
  38963820.276      145486.6202                                 
 18  5  7 14 45 22.0010000  0  8G29G31G26G21G25G 5S20S23
  20819089.333      181031.643                                  
  21791193.795      190570.965                                  
  21897681.637       24137.501                                  
  22404578.057       22355.149                                  
  22653548.446      240634.561                                  
  24214846.510       96353.5433                                 
  38991471.795      114226.0572                                 
  38964277.359      147888.3352                                 
 18  5  7 14 45 23.0010000  0  8G29G31G26G21G25G 5S20S23
  20819816.588      184853.118                                  
  21791960.898      194602.224                                  
  21897691.741       24191.951                                  
  22404580.553       22369.236                                  
  22654541.922      245854.566                                  
  24215179.329       98092.6773                                 
  38991903.810      116496.4242                                 
  38964730.768      150274.3292                                 
 18  5  7 14 45 24.0010000  0  8G29G31G26G21G25G 5S20S23
  20820542.491      188666.653                                  
  21792726.596      198625.759                                  
  21897700.579       24238.423                                  
  22404581.635       22375.391                                  
  22655534.420      251066.610                                  
  24215518.491       99824.0742                                 
  38992334.290      118758.5922                                 
  38965183.924      152651.9592                                 
 18  5  7 14 45 25.0010000  0  8G29G31G26G21G25G 5S20S23
  20821266.971      192474.332                                  
  21793491.395      202643.603                                  
  21897707.664       24278.895                                  
  22404581.722       22375.740                                  
  22656524.746      256272.636                                  
  24215852.654      101549.8262                                 
  38992763.583      121014.3402                                 
  38965634.968      155023.4052                                 
 18  5  7 14 45 26.0010000  0  8G29G31G26G21G25G 5S20S23
  20821988.276      196270.329                                  
  21794252.975      206649.949                                  
  21897712.725       24307.675                                  
  22404579.087       22364.421                                  
  22657513.118      261466.976                                  
  24216176.975      103264.1482                                 
  38993190.136      123258.2682                                 
  38966083.700      157382.7332                                 
 18  5  7 14 45 27.0010000  0  8G29G31G26G21G25G 5S20S23
  20822707.914      200051.123                                  
  21795011.745      210641.268                                  
  21897714.854       24321.220                                  
  22404573.442       22337.935                                  
  22658497.868      266645.970                                  
  24216487.851      104963.5603                                 
  38993613.862      125486.7842                                 
  38966530.190      159726.4932                                 
 18  5  7 14 45 28.0010000  0  8G29G31G26G21G25G 5S20S23
  20823425.790      203821.600                                  
  21795769.338      214622.470                                  
  21897715.988       24324.356                                  
  22404566.671       22301.120                                  
  22659481.145      271814.603                                  
  24216809.092      106652.8342                                 
  38994035.503      127704.4142                                 
  38966974.333      162059.5432                                 
 18  5  7 14 45 29.0010000  0  8G29G31G26G21G25G 5S20S23
  20824142.837      207587.278                                  
  21796525.534      218599.104                                  
  21897715.874       24322.573                                  
  22404558.766       22259.587                                  
  22660464.351      276978.301                                  
  24217125.936      108337.6302                                 
  38994456.201      129916.6732                                 
  38967416.880      164387.4202                                 
 18  5  7 14 45 30.0010000  0  8G29G31G26G21G25G 5S20S23
  20824857.232      211344.689                                  
  21797280.780      222567.591                                  
  21897713.693       24312.585                                  
  22404549.186       22209.807                                  
  22661445.324      282133.735                                  
  24217442.936      110014.2343                                 
  38994875.399      132120.2172                                 
  38967858.030      166706.6412                                 
 18  5  7 14 45 31.0010000  0  7G29G31G26G21G25S20S23
  20825569.602      215091.179                                  
  21798033.146      226525.366                                  
  21897709.540       24291.614                                  
  22404538.550       22149.109                                  
  22662423.408      287278.104                                  
  38995292.651      134312.5432                                 
  38968297.749      169014.5262                                 
 18  5  7 14 45 32.0010000  0  7G29G31G26G21G25S20S23
  20826280.942      218826.735                                  
  21798784.989      230472.400                                  
  21897704.026       24259.470                                  
  22404524.564       22077.539                                  
  22663400.577      292411.501                                  
  38995707.853      136493.9672                                 
  38968734.170      171311.1182                                 
 18  5  7 14 45 33.0010000  0  8G29G31G26G21G25G 5S20S23
  20826990.878      222557.487                                  
  21799535.287      234414.814                                  
  21897697.255       24222.568                                  
  22404509.792       22001.156                                  
  22664376.533      297540.006                                  
  24218385.545      114990.2693                                 
  38996121.903      138669.9092                                 
  38969170.443      173602.5082                                 
 18  5  7 14 45 34.0010000  0  8G29G31G26G21G25G 5S20S23
  20827699.567      226281.313                                  
  21800284.800      238350.473                                  
  21897688.417       24178.7763                                 
  22404493.337       21917.856                                  
  22665351.049      302661.489                                  
  24218701.123      116634.7783                                 
  38996533.807      140838.2402                                 
  38969605.058      175886.6002                                 
 18  5  7 14 45 35.0010000  0  8G29G31G26G21G25G 5S20S23
  20828405.245      229991.469                                  
  21801030.849      242272.661                                  
  21897677.056       24121.0522                                 
  22404475.407       21820.950                                  
  22666322.127      307769.211                                  
  24219012.304      118265.6773                                 
  38996943.904      142992.6512                                 
  38970036.768      178156.6612                                 
 18  5  7 14 45 36.0010000  0  8G29G31G26G21G25G 5S20S23
  20829109.082      233688.822                                  
  21801775.869      246182.240                                  
  21897663.367       24050.7102                                 
  22404455.234       21711.280                                  
  22667291.522      312864.077                                  
  24219322.735      119883.6283                                 
  38997351.376      145133.9892                                 
  38970466.436      180413.4822                                 
 18  5  7 14 45 37.0010000  0  8G29G31G26G21G25G 5S20S23
  20829811.052      237381.003                                  
  21802518.759      250086.838                                  
  21897649.808       23974.9982                                 
  22404433.133       21596.448                                  
  22668259.660      317953.687                                  
  24219633.427      121496.6992                                 
  38997757.582      147269.8212                                 
  38970895.170      182664.7842                                 
 18  5  7 14 45 38.0010000  0  8G29G31G26G21G25G 5S20S23
  20830512.681      241068.181                                  
  21803260.219      253986.581                                  
  21897634.714       23894.2482                                 
  22404410.090       21476.628                                  
  22669226.925      323038.208                                  
  24219936.895      123105.0102                                 
  38998163.125      149400.3802                                 
  38971322.378      184910.6592                                 
 18  5  7 14 45 39.0010000  0  8G29G31G26G21G25G 5S20S23
  20831212.234      244742.596                                  
  21803999.410      257873.754                                  
  21897617.473       23800.6682                                 
  22404385.686       21344.102                                  
  22670191.547      328109.900                                  
  24220246.942      124700.8052                                 
  38998566.059      151517.7812                                 
  38971747.483      187143.3542                                 
 18  5  7 14 45 40.0010000  0  8G29G31G26G21G25G 5S20S23
  20831909.327      248404.073                                  
  21804736.961      261748.193                                  
  21897596.550       23694.0972                                 
  22404358.673       21198.647                                  
  22671153.543      333168.534                                  
  24220540.236      126283.8972                                 
  38998966.210      153621.7972                                 
  38972169.996      189362.7602                                 
 18  5  7 14 45 41.0010000  0  8G29G31G26G21G25G 5S20S23
  20832604.727      252060.292                                  
  21805472.863      265617.558                                  
  21897575.304       23582.2412                                 
  22404329.619       21047.950                                  
  22672115.442      338221.860                                  
  24220844.725      127861.9013                                 
  38999365.750      155719.8852                                 
  38972591.183      191576.5182                                 
 18  5  7 14 45 42.0010000  0  8G29G31G26G21G25G 5S20S23
  20833299.708      255712.298                                  
  21806208.119      269482.899                                  
  21897552.532       23466.0612                                 
  22404299.901       20893.076                                  
  22673075.772      343270.879                                  
  24221144.825      129435.9712                                 
  38999764.174      157813.4052                                 
  38973011.638      193785.7422                                 
 18  5  7 14 45 43.0010000  0  8G29G31G26G21G25G 5S20S23
  20833991.845      259352.038                                  
  21806940.810      273336.162                                  
  21897529.148       23337.596                                  
  22404268.046       20725.975                                  
  22674033.614      348307.580                                  
  24221441.985      130998.0862                                 
  39000160.006      159894.4702                                 
  38973429.579      195982.2702                                 
 18  5  7 14 45 44.0010000  0  8G29G31G26G21G25G 5S20S23
  20834682.140      262978.708                                  
  21807672.227      277176.524                                  
  21897502.179       23195.994                                  
  22404233.808       20545.816                                  
  22674989.851      353331.119                                  
  24221737.252      132547.2132                                 
  39000553.587      161962.1632                                 
  38973845.200      198165.3182                                 
 18  5  7 14 45 45.0010000  0  8G29G31G26G21G25G 5S20S23
  20835370.953      266599.474                                  
  21808401.882      281011.186                                  
  21897473.552       23048.427                                  
  22404198.707       20359.783                                  
  22675944.727      358348.652                                  
  24222031.009      134090.7943                                 
  39000945.972      164023.5002                                 
  38974259.529      200342.1052                                 
 18  5  7 14 45 46.0010000  0  8G29G31G26G21G25G 5S20S23
  20836059.582      270217.562                                  
  21809131.039      284843.341                                  
  21897444.934       22898.109                                  
  22404162.742       20171.089                                  
  22676898.521      363363.440                                  
  24222324.076      135631.8622                                 
  39001337.259      166081.4612                                 
  38974672.453      202515.7932                                 
 18  5  7 14 45 47.0010000  0  8G29G31G26G21G25G 5S20S23
  20836746.414      273826.365                                  
  21809858.609      288666.409                                  
  21897414.649       22738.471                                  
  22404125.250       19973.160                                  
  22677850.832      368368.874                                  
  24222615.530      137163.9233                                 
  39001727.201      168129.7672                                 
  38975084.444      204679.8492                                 
 18  5  7 14 45 48.0010000  0  8G29G31G26G21G25G 5S20S23
  20837430.462      277423.007                                  
  21810583.526      292477.491                                  
  21897381.799       22566.578                                  
  22404084.670       19763.073                                  
  22678801.275      373362.040                                  
  24222904.907      138684.0342                                 
  39002114.247      170165.7032                                 
  38975493.730      206831.3402                                 
 18  5  7 14 45 49.0010000  0  8G29G31G26G21G25G 5S20S23
  20838113.761      281011.643                                  
  21811307.256      296280.761                                  
  21897347.762       22386.693                                  
  22404043.357       19545.035                                  
  22679750.794      378347.153                                  
  24223192.120      140196.5203                                 
  39002499.583      172193.4972                                 
  38975902.013      208974.4342                                 
 18  5  7 14 45 50.0010000  0  8G29G31G26G21G25G 5S20S23
  20838795.645      284597.095                                  
  21812030.262      300081.040                                  
  21897312.766       22203.529                                  
  22404000.351       19323.810                                  
  22680698.908      383328.985                                  
  24223478.173      141705.9363                                 
  39002884.962      174217.7582                                 
  38976308.874      211113.9432                                 
 18  5  7 14 45 51.0010000  0  7G29G31G26G21G25S20S23
  20839476.919      288176.413                                  
  21812752.597      303875.359                                  
  21897276.818       22014.168                                  
  22403957.187       19096.508                                  
  22681645.181      388304.603                                  
  39003269.355      176235.1212                                 
  38976715.254      213246.9802                                 
 18  5  7 14 45 52.0010000  0  8G29G31G26G21G25G 5S20S23
  20840156.666      291746.197                                  
  21813472.819      307660.330                                  
  21897239.379       21815.226                                  
  22403911.948       18859.712                                  
  22682589.465      393270.640                                  
  24224048.420      144703.9433                                 
  39003651.585      178242.4872                                 
  38977119.349      215370.0902                                 
 18  5  7 14 45 53.0010000  0  8G29G31G26G21G25G 5S20S23
  20840834.284      295307.692                                  
  21814191.707      311437.199                                  
  21897199.819       21607.945                                  
  22403865.452       18614.656                                  
  22683532.963      398228.270                                  
  24224332.474      146189.9233                                 
  39004032.122      180241.4512                                 
  38977521.803      217484.5642                                 
 18  5  7 14 45 54.0010000  0  8G29G31G26G21G25G 5S20S23
  20841511.205      298866.164                                  
  21814910.211      315211.230                                  
  21897158.942       21397.580                                  
  22403818.004       18366.599                                  
  22684476.688      403182.818                                  
  24224619.626      147673.2703                                 
  39004411.699      182236.9152                                 
  38977923.350      219595.6052                                 
 18  5  7 14 45 55.0010000  0  8G29G31G26G21G25G 5S20S23
  20842187.147      302419.031                                  
  21815627.188      318979.836                                  
  21897117.585       21181.555                                  
  22403770.034       18112.955                                  
  22685418.773      408131.681                                  
  24224911.437      149151.2342                                 
  39004790.456      184226.3222                                 
  38978323.754      221700.6292                                 
 18  5  7 14 45 56.0010000  0  8G29G31G26G21G25G 5S20S23
  20842861.276      305959.632                                  
  21816341.845      322736.344                                  
  21897074.675       20953.190                                  
  22403719.917       17847.084                                  
  22686359.061      413068.192                                  
  24225201.050      150617.1282                                 
  39005166.779      186203.2902                                 
  38978721.785      223792.9732                                 
 18  5  7 14 45 57.0010000  0  8G29G31G26G21G25G 5S20S23
  20843533.475      309490.474                                  
  21817054.922      326483.297                                  
  21897029.470       20715.027                                  
  22403667.444       17571.496                                  
  22687296.451      417994.866                                  
  24225478.413      152073.5822                                 
  39005541.478      188170.1402                                 
  38979117.713      225875.1852                                 
 18  5  7 14 45 58.0010000  0  8G29G31G26G21G25G 5S20S23
  20844204.410      313018.344                                  
  21817767.327      330227.464                                  
  21896983.672       20473.828                                  
  22403614.203       17292.943                                  
  22688234.287      422918.493                                  
  24225756.543      153527.2882                                 
  39005915.323      190133.5092                                 
  38979513.135      227954.0822                                 
 18  5  7 14 45 59.0010000  0  8G29G31G26G21G25G 5S20S23
  20844874.856      316541.696                                  
  21818479.383      333967.308                                  
  21896936.757       20228.064                                  
  22403560.657       17009.931                                  
  22689170.552      427837.509                                  
  24226030.852      154976.7272                                 
  39006287.946      192091.9162                                 
  38979908.112      230028.0872                                 
 18  5  7 14 46  0.0010000  0  8G29G31G26G21G25G 5S20S23
  20845543.400      320053.963                                  
  21819189.301      337696.243                                  
  21896887.390       19971.152                                  
  22403504.756       16715.843                                  
  22690104.767      432745.377                                  
  24226305.134      156415.2802                                 
  39006658.476      194038.7462                                 
  38980300.960      232090.6052                                 
 18  5  7 14 46  1.0010000  0  9G29G31G26G21G25G 5S20S27S23
  20846209.937      323555.861                                  
  21819897.344      341414.985                                  
  21896836.671       19703.797                                  
  22403447.754       16411.417                                  
  22691036.653      437642.765                                  
  24226576.607      157843.7572                                 
  39007027.190      195975.0612                                 
  40057515.640      236475.6242                                 
  38980691.618      234142.3612                                 
 18  5  7 14 46  2.0010000  0  9G29G31G26G21G25G 5S20S27S23
  20846874.834      327054.381                                  
  21820603.860      345130.548                                  
  21896785.682       19432.882                                  
  22403389.148       16103.683                                  
  22691967.517      442536.740                                  
  24226848.604      159268.9972                                 
  39007395.128      197907.6682                                 
  40057904.963      238516.7082                                 
  38981080.845      236190.3452                                 
 18  5  7 14 46  3.0010000  0  9G29G31G26G21G25G 5S20S27S23
  20847540.159      330549.339                                  
  21821309.808      348842.806                                  
  21896733.366       19158.649                                  
  22403329.808       15792.402                                  
  22692899.027      447427.124                                  
  24227118.454      160691.0083                                 
  39007762.019      199836.2352                                 
  40058292.803      240553.9552                                 
  38981468.947      238234.4672                                 
 18  5  7 14 46  4.0010000  0  9G29G31G26G21G25G 5S20S27S23
  20848204.079      334033.435                                  
  21822013.942      352544.312                                  
  21896677.813       18873.393                                  
  22403268.933       15470.248                                  
  22693828.042      452306.4413                                 
  24227386.288      162102.9063                                 
  39008126.545      201753.2532                                 
  40058678.217      242580.2643                                 
  38981855.626      240267.1302                                 
 18  5  7 14 46  5.0010000  0  9G29G31G26G21G25G 5S20S27S23
  20848864.648      337505.0163                                 
  21822715.668      356233.5923                                 
  21896621.554       18575.8543                                 
  22403205.868       15136.368                                  
  22694753.409      457173.0783                                 
  24227655.284      163505.4203                                 
  39008488.637      203658.5373                                 
  40059061.956      244594.3233                                 
  38982240.325      242287.8013                                 
 18  5  7 14 46  6.0010000  0  8G29G31G26G21G25G 5S20S27
  20849526.247      340969.4703                                 
  21823416.320      359915.2483                                 
  21896563.183       18270.2883                                 
  22403140.753       14794.8163                                 
  22695676.002      462033.0403                                 
  24227929.226      164896.5463                                 
  39008849.839      205555.4593                                 
  40059443.339      246599.5703                                 
 18  5  7 14 46  7.0010000  0  8G29G31G26G21G25G 5S20S27
  20850180.822      344425.8233                                 
  21824116.894      363597.0153                                 
  21896504.864       17963.9273                                 
  22403078.927       14449.8103                                 
  22696602.530      466884.0813                                 
  24228195.970      166283.7443                                 
  39009211.233      207452.2713                                 
  40059824.085      248600.5593                                 
 18  5  7 14 46  8.0010000  0  7G29G31G26G21G25S20S27
  20850836.077      347874.2363                                 
  21824816.360      367269.7353                                 
  21896444.774       17651.3923                                 
  22403009.405       14094.5323                                 
  22697523.378      471724.6883                                 
  39009570.018      209339.0753                                 
  40060201.254      250584.7073                                 
 18  5  7 14 46  9.0010000  0  8G29G31G26G21G25G 5S20S27
  20851492.415      351324.0923                                 
  21825513.644      370938.1503                                 
  21896384.039       17332.9963                                 
  22402937.013       13736.0693                                 
  22698444.602      476565.8843                                 
  24228722.582      169044.7783                                 
  39009927.277      211216.5553                                 
  40060578.799      252567.7883                                 
 18  5  7 14 46 10.0010000  0  7G29G31G26G21G25S20S27
  20852148.438      354758.1433                                 
  21826208.817      374590.3433                                 
  21896321.602       16997.3493                                 
  22402866.383       13363.5343                                 
  22699365.022      481394.2103                                 
  39010282.397      213080.6533                                 
  40060953.961      254540.9063                                 
 18  5  7 14 46 11.0010000  0  8G29G31G26G21G25G 5S20S27
  20852797.953      358183.6213                                 
  21826903.851      378234.9383                                 
  21896254.209       16653.1523                                 
  22402796.059       12983.1213                                 
  22700279.658      486214.8913                                 
  24229229.459      171761.3423                                 
  39010635.668      214937.0672                                 
  40061327.771      256505.9733                                 
 18  5  7 14 46 12.0010000  0  8G29G31G26G21G25G 5S20S27
  20853448.960      361606.0132                                 
  21827597.017      381876.2222                                 
  21896190.978       16305.6942                                 
  22402721.843       12599.5352                                 
  22701198.089      491031.9012                                 
  24229484.442      173112.8343                                 
  39010988.712      216789.7542                                 
  40061701.040      258467.1812                                 
 18  5  7 14 46 13.0010000  0  8G29G31G26G21G25G 5S20S27
  20854099.608      365024.5412                                 
  21828289.887      385513.8022                                 
  21896122.940       15954.3492                                 
  22402649.835       12212.0992                                 
  22702112.271      495845.0002                                 
  24229735.437      174460.8933                                 
  39011341.111      218638.2542                                 
  40062073.017      260424.0602                                 
 18  5  7 14 46 14.0010000  0  8G29G31G26G21G25G 5S20S27
  20854748.093      368433.7092                                 
  21828979.947      389142.2092                                 
  21896051.534       15593.5632                                 
  22402573.717       11815.3462                                 
  22703027.500      500648.6352                                 
  24229987.715      175799.9393                                 
  39011691.223      220477.0382                                 
  40062443.503      262371.3512                                 
 18  5  7 14 46 15.0010000  0  8G29G31G26G21G25G 5S20S27
  20855395.383      371832.7482                                 
  21829666.534      392760.6802                                 
  21895982.640       15222.6312                                 
  22402496.011       11408.4832                                 
  22703939.003      505442.0762                                 
  24230236.179      177128.9153                                 
  39012038.997      222305.1142                                 
  40062811.920      264308.1713                                 
 18  5  7 14 46 16.0010000  0  8G29G31G26G21G25G 5S20S27
  20856040.779      375224.9382                                 
  21830355.312      396372.4842                                 
  21895909.838       14844.7632                                 
  22402416.848       10994.8072                                 
  22704851.292      510228.5742                                 
  24230486.398      178450.9383                                 
  39012385.724      224125.7482                                 
  40063178.864      266237.8212                                 
 18  5  7 14 46 17.0010000  0  8G29G31G26G21G25G 5S20S27
  20856686.350      378615.6522                                 
  21831042.091      399983.0042                                 
  21895838.536       14465.3812                                 
  22402338.811       10579.6882                                 
  22705761.530      515013.5252                                 
  24230738.912      179772.0743                                 
  39012732.303      225944.6422                                 
  40063545.370      268165.5263                                 
 18  5  7 14 46 18.0010000  0  8G29G31G26G21G25G 5S20S27
  20857329.487      381997.9242                                 
  21831727.623      403585.2652                                 
  21895764.739       14077.5082                                 
  22402258.435       10156.1512                                 
  22706669.386      519789.9552                                 
  24230983.188      181084.9323                                 
  39013076.884      227754.6572                                 
  40063910.682      270084.3252                                 
 18  5  7 14 46 19.0010000  0  8G29G31G26G21G25G 5S20S27
  20857970.739      385368.997                                  
  21832410.712      407176.008                                  
  21895688.735       13677.855                                  
  22402175.599        9721.453                                  
  22707576.213      524555.095                                  
  24231223.583      182386.7762                                 
  39013418.873      229553.3752                                 
  40064273.359      271991.6092                                 
 18  5  7 14 46 20.0010000  0  8G29G31G26G21G25G 5S20S27
  20858611.737      388734.961                                  
  21833093.487      410762.352                                  
  21895611.596       13273.578                                  
  22402091.628        9281.694                                  
  22708481.897      529315.067                                  
  24231463.558      183683.8703                                 
  39013760.679      231346.6892                                 
  40064634.988      273893.4523                                 
 18  5  7 14 46 21.0010000  0  8G29G31G26G21G25G 5S20S27
  20859251.785      392099.562                                  
  21833776.462      414347.492                                  
  21895534.414       12867.860                                  
  22402007.902        8840.586                                  
  22709387.476      534073.584                                  
  24231709.728      184979.6963                                 
  39014101.526      233138.0402                                 
  40064996.129      275793.4693                                 
 18  5  7 14 46 22.0010000  0  8G29G31G26G21G25G 5S20S27
  20859890.594      395457.020                                  
  21834456.689      417925.697                                  
  21895455.818       12454.946                                  
  22401922.475        8392.381                                  
  22710291.310      538824.887                                  
  24231953.682      186268.7323                                 
  39014441.185      234921.6722                                 
  40065356.214      277685.9383                                 
 18  5  7 14 46 23.0010000  0  8G29G31G26G21G25G 5S20S27
  20860527.597      398804.429                                  
  21835135.232      421494.028                                  
  21895375.285       12031.939                                  
  22401835.302        7934.157                                  
  22711193.207      543566.054                                  
  24232195.377      187547.9313                                 
  39014778.699      236694.8342                                 
  40065713.865      279567.9232                                 
 18  5  7 14 46 24.0010000  0  8G29G31G26G21G25S20S27S23
  20861163.832      402146.262                                  
  21835813.260      425056.971                                  
  21895293.732       11603.309                                  
  22401747.615        7470.385                                  
  22712094.214      548301.579                                  
  39015115.008      238462.1592                                 
  40066070.818      281443.8633                                 
  38989270.616      279288.8832                                 
 18  5  7 14 46 25.0010000  0  8G29G31G26G21G25S20S27S23
  20861799.587      405486.683                                  
  21836490.922      428618.690                                  
  21895211.978       11173.206                                  
  22401658.863        7005.224                                  
  22712995.256      553035.591                                  
  39015451.265      240227.9112                                 
  40066426.934      283318.1033                                 
  38989628.529      281169.9702                                 
 18  5  7 14 46 26.0010000  0  9G29G31G26G21G25G 5S20S27S23
  20862434.146      408821.855                                  
  21837167.746      432175.344                                  
  21895128.679       10737.808                                  
  22401569.526        6534.859                                  
  22713895.173      557764.268                                  
  24232921.942      191362.3673                                 
  39015786.187      241988.2132                                 
  40066782.525      285186.6812                                 
  38989985.115      283045.3972                                 
 18  5  7 14 46 27.0010000  0  9G29G31G26G21G25G 5S20S27S23
  20863067.101      412146.472                                  
  21837842.459      435721.622                                  
  21895043.880       10291.785                                  
  22401478.000        6053.960                                  
  22714792.882      562482.323                                  
  24233161.106      192619.8213                                 
  39016119.495      243737.1702                                 
  40067136.119      287044.3523                                 
  38990339.590      284909.8912                                 
 18  5  7 14 46 28.0010000  0  8G29G31G26G21G25S20S27S23
  20863698.380      415463.179                                  
  21838516.150      439260.200                                  
  21894957.972        9837.810                                  
  22401384.327        5565.202                                  
  22715689.360      567192.406                                  
  39016451.573      245477.7562                                 
  40067487.802      288893.7753                                 
  38990692.940      286766.1192                                 
 18  5  7 14 46 29.0010000  0  8G29G31G26G21G25S20S27S23
  20864329.528      418778.161                                  
  21839189.162      442797.202                                  
  21894871.393        9382.070                                  
  22401290.794        5074.741                                  
  22716585.167      571900.657                                  
  39016782.472      247216.2162                                 
  40067839.136      290741.1493                                 
  38991046.036      288620.2402                                 
 18  5  7 14 46 30.0010000  0  9G29G31G26G21G25G 5S20S27S23
  20864958.949      422088.543                                  
  21839861.257      446329.810                                  
  21894783.845        8921.661                                  
  22401196.450        4579.717                                  
  22717479.971      576604.248                                  
  24233874.515      196361.5213                                 
  39017112.657      248949.8432                                 
  40068189.694      292583.5273                                 
  38991398.278      290469.3672                                 
 18  5  7 14 46 31.0010000  0  8G29G31G26G21G25S20S27S23
  20865587.026      425388.117                                  
  21840530.577      449851.782                                  
  21894693.497        8450.401                                  
  22401099.932        4073.905                                  
  22718373.143      581296.942                                  
  39017439.988      250672.2642                                 
  40068538.096      294414.5843                                 
  38991747.980      292307.3432                                 
 18  5  7 14 46 32.0010000  0  9G29G31G26G21G25G 5S20S27S23
  20866213.707      428678.053                                  
  21841199.270      453364.309                                  
  21894602.101        7969.452                                  
  22401002.185        3558.504                                  
  22719264.430      585979.933                                  
  24234347.538      198818.6193                                 
  39017766.167      252384.8212                                 
  40068884.840      296235.5393                                 
  38992095.702      294135.2602                                 
 18  5  7 14 46 33.0010000  0  9G29G31G26G21G25G 5S20S27S23
  20866839.210      431965.612                                  
  21841867.098      456874.631                                  
  21894510.427        7486.057                                  
  22400903.007        3040.745                                  
  22720155.011      590660.452                                  
  24234583.927      200040.0583                                 
  39018091.186      254094.5582                                 
  40069230.678      298053.8053                                 
  38992442.900      295960.4492                                 
 18  5  7 14 46 34.0010000  0  9G29G31G26G21G25G 5S20S27S23
  20867464.311      435250.474                                  
  21842534.220      460382.487                                  
  21894418.028        6999.928                                  
  22400804.012        2520.352                                  
  22721045.242      595338.210                                  
  24234813.223      201259.5523                                 
  39018416.101      255800.9982                                 
  40069576.419      299868.9352                                 
  38992789.688      297782.5572                                 
 18  5  7 14 46 35.0010000  0  9G29G31G26G21G25G 5S20S27S23
  20868087.302      438525.060                                  
  21843199.693      463880.201                                  
  21894323.997        6503.473                                  
  22400702.879        1989.684                                  
  22721933.581      600005.594                                  
  24235041.237      202468.8893                                 
  39018738.816      257496.5202                                 
  40069920.258      301673.5023                                 
  38993134.600      299593.9642                                 
 18  5  7 14 46 36.0010000  0  8G29G31G26G21G25S20S27S23
  20868708.364      441788.762                                  
  21843863.377      467367.240                                  
  21894227.463        5996.075                                  
  22400600.176        1448.187                                  
