     2.11           OBSERVATION DATA    M (MIXED)           RINEX VERSION / TYPE
CONVBIN 2.4.2                           20180601 072813 UTC PGM / RUN BY / DATE 
log: 150159.ubx                                             COMMENT             
format: u-blox                                              COMMENT             
                                                            MARKER NAME         
                                                            MARKER NUMBER       
                                                            OBSERVER / AGENCY   
                                                            REC # / TYPE / VERS 
                                                            ANT # / TYPE        
  4146310.1951   613393.9283  4791669.3206                  APPROX POSITION XYZ 
        0.0000        0.0000        0.0000                  ANTENNA: DELTA H/E/N
     1     1                                                WAVELENGTH FACT L1/2
     4    C1    L1    C2    L2                              # / TYPES OF OBSERV 
  2018     5    14    15     2   18.0010000     GPS         TIME OF FIRST OBS   
  2018     5    14    15    12   22.0010000     GPS         TIME OF LAST OBS    
                                                            END OF HEADER       
 18  5 14 15  2 18.0010000  0  6G26G21G29G16G25G20
  20871863.306       62079.5032                                 
  21409164.410       62773.5632                                 
  21718667.518      107516.6962                                 
  22280546.739       40740.2792                                 
  24241240.099      123049.0362                                 
  24134163.661       42882.9162                                 
 18  5 14 15  2 19.0010000  0  6G26G21G29G16G25G20
  20872710.008       66530.2812                                 
  21410029.348       67320.1232                                 
  21720183.663      115458.3382                                 
  22281095.740       43625.3662                                 
  24242978.595      132189.2432                                 
  24134605.422       45226.5352                                 
 18  5 14 15  2 20.0010000  0  8G26G21G29G16G25G 5G20G 4
  20873552.566       70959.0662                                 
  21410890.149       71844.7082                                 
  21721688.395      123377.7242                                 
  22281639.987       46488.2952                                 
  24244713.495      141307.1062                                 
  24250444.452      105038.6213                                 
  24135047.270       47547.7902                                 
  20320725.733       79306.2202                                 
 18  5 14 15  2 21.0010000  0  8G26G21G29G16G25G 5G20G 4
  20874391.625       75367.6112                                 
  21411747.182       76349.0272                                 
  21723191.138      131276.6062                                 
  22282180.629       49330.6992                                 
  24246444.382      150404.3932                                 
  24251721.075      111741.1903                                 
  24135483.282       49848.4262                                 
  20321776.245       84829.5182                                 
 18  5 14 15  2 22.0010000  0  8G26G21G29G16G31G25G20G 4
  20875227.106       79761.0472                                 
  21412600.820       80838.2602                                 
  21724689.074      139160.1542                                 
  22282718.183       52157.8782                                 
  22932890.480      149601.6973                                 
  24248172.486      159486.2552                                 
  24135918.848       52133.6272                                 
  20322824.095       90337.7792                                 
 18  5 14 15  2 23.0010000  0  8G26G21G29G16S36G31G25G20
  20876060.677       84141.6272                                 
  21413452.190       85314.6292                                 
  21726188.074      147030.6202                                 
  22283253.713       54971.9562                                 
  38523384.376      105062.0812                                 
  22934506.623      158092.0583                                 
  24249898.007      168554.9172                                 
  24136350.889       54405.5962                                 
 18  5 14 15  2 24.0010000  0  8G26G21G29G16S36G31G25G20
  20876892.241       88510.4712                                 
  21414301.859       89779.2842                                 
  21727684.098      154889.0632                                 
  22283787.096       57774.1092                                 
  38524440.533      110613.8312                                 
  22936119.303      166570.5433                                 
  24251621.705      177611.5492                                 
  24136781.046       56665.4482                                 
 18  5 14 15  2 25.0010000  0  8G26G21G29G16S36G31G25G20
  20877720.690       92867.4502                                 
  21415149.189       94232.0512                                 
  21729177.462      162735.4162                                 
  22284318.106       60564.1532                                 
  38525494.613      116153.1362                                 
  22937729.452      175037.5033                                 
  24253342.785      186655.9412                                 
  24137207.721       58913.0652                                 
 18  5 14 15  2 26.0010000  0  8G26G21G29G16S36G31G25G20
  20878547.150       97213.3162                                 
  21415994.425       98673.7302                                 
  21730668.557      170570.4002                                 
  22284848.113       63342.9602                                 
  38526547.018      121680.7532                                 
  22939339.173      183492.5883                                 
  24255061.422      195688.9272                                 
  24137632.712       61149.2382                                 
 18  5 14 15  2 27.0010000  0  8G26G21G29G16S36G31G25G20
  20879372.048      101549.0832                                 
  21416838.274      103105.2852                                 
  21732157.793      178395.0192                                 
  22285376.026       66111.4022                                 
  38527596.169      127197.7232                                 
  22940946.120      191937.4473                                 
  24256778.183      204711.4942                                 
  24138055.810       63374.8912                                 
 18  5 14 15  2 28.0010000  0  9G26G21G29G16S36G31G25G 5G20
  20880194.782      105875.1802                                 
  21417679.113      107527.1842                                 
  21733645.590      186209.7542                                 
  22285901.068       68869.9252                                 
  38528643.880      132704.5272                                 
  22942550.851      200372.4273                                 
  24258493.391      213724.0132                                 
  24260580.001      158311.4373                                 
  24138477.146       65590.5312                                 
 18  5 14 15  2 29.0010000  0  8G26G21G29G16S36G31G25G 5
  20881016.146      110191.5312                                 
  21418518.722      111939.3562                                 
  21735130.900      194014.5012                                 
  22286424.740       71618.5832                                 
  38529689.654      138201.0642                                 
  22944153.854      208797.6312                                 
  24260206.409      222726.4912                                 
  24261838.869      164923.0153                                 
 18  5 14 15  2 30.0010000  0  8G26G21G29G16S36G31G25G 5
  20881835.382      114497.0332                                 
  21419356.594      116340.6852                                 
  21736614.143      201808.1052                                 
  22286946.153       74356.1362                                 
  38530733.692      143686.3482                                 
  22945755.226      217211.7473                                 
  24261916.819      231717.7732                                 
  24263096.305      171523.9172                                 
 18  5 14 15  2 31.0010000  0  9G26G21G29G16S36G31G25G 5G20
  20882652.750      118791.917                                  
  21420191.770      120731.424                                  
  21738095.579      209590.903                                  
  22287465.253       77082.918                                  
  38531774.903      149161.0702                                 
  22947354.852      225615.5602                                 
  24263625.588      240698.611                                  
  24264352.703      178114.7622                                 
  24139728.867       72174.2093                                 
 18  5 14 15  2 32.0010000  0  9G26G21G29G16S36G31G25G 5G20
  20883468.390      123077.793                                  
  21421025.332      125113.124                                  
  21739574.965      217364.414                                  
  22287982.556       79800.449                                  
  38532815.032      154625.7542                                 
  22948952.428      234009.7652                                 
  24265332.114      249669.618                                  
  24265605.603      184696.3043                                 
  24140142.306       74348.1302                                 
 18  5 14 15  2 33.0010000  0  9G26G21G29G16S36G31G25G 5G20
  20884282.146      127355.379                                  
  21421857.952      129486.546                                  
  21741053.574      225129.387                                  
  22288497.556       82509.495                                  
  38533854.123      160081.6982                                 
  22950548.207      242395.5212                                 
  24267036.835      258632.008                                  
  24266855.352      191269.6582                                 
  24140554.568       76513.3733                                 
 18  5 14 15  2 34.0010000  0  8G26G21G29G16S36G31G25G 5
  20885094.690      131625.599                                  
  21422688.687      133852.629                                  
  21742530.272      232886.790                                  
  22289011.151       85210.913                                  
  38534891.058      165529.6982                                 
  22952142.991      250773.7722                                 
  24268741.285      267586.706                                  
  24268105.556      197835.7563                                 
 18  5 14 15  2 35.0010000  0  9G26G21G29G16S36G31G25G 5G20
  20885905.593      135888.198                                  
  21423518.357      138211.049                                  
  21744005.043      240636.271                                  
  22289523.646       87905.1073                                 
  38535926.188      170969.4822                                 
  22953735.062      259144.0543                                 
  24270443.667      276533.413                                  
  24269352.967      204394.3292                                 
  24141373.978       80820.5422                                 
 18  5 14 15  2 36.0010000  0  9G26G21G29G16S36G31G25G 5G20
  20886715.283      140142.293                                  
  21424346.265      142561.021                                  
  21745477.047      248376.992                                  
  22290035.583       90590.1112                                 
  38536959.249      176400.3492                                 
  22955326.365      267505.8333                                 
  24272144.348      285471.322                                  
  24270600.222      210944.5712                                 
  24141781.702       82961.2523                                 
 18  5 14 15  2 37.0010000  0  9G26G21G29G16S36G31G25G 5G20
  20887522.905      144388.084                                  
  21425172.516      146902.637                                  
  21746947.559      256109.195                                  
  22290545.313       93266.5762                                 
  38537990.609      181822.4712                                 
  22956916.202      275859.1472                                 
  24273843.510      294400.610                                  
  24271845.085      217486.5782                                 
  24142187.934       85093.2362                                 
 18  5 14 15  2 38.0010000  0  9G26G21G29G16S36G31G25G 5G20
  20888329.332      148627.352                                  
  21425997.056      151237.741                                  
  21748416.815      263834.595                                  
  22291054.414       95936.2832                                 
  38539021.490      187237.6032                                 
  22958504.765      284205.7412                                 
  24275541.033      303323.012                                  
  24273089.286      224022.2392                                 
  24142592.169       87218.4012                                 
 18  5 14 15  2 39.0010000  0  9G26G21G29G16S36G31G25G 5G20
  20889135.061      152860.203                                  
  21426820.776      155566.451                                  
  21749884.754      271553.344                                  
  22291561.823       98599.3572                                 
  38540051.236      192645.6922                                 
  22960092.159      292545.7582                                 
  24277237.752      312238.691                                  
  24274331.654      230551.6152                                 
  24142995.347       89336.7282                                 
 18  5 14 15  2 40.0010000  0  9G26G21G29G16S36G31G25G 5G20
  20889939.001      157085.427                                  
  21427643.362      159887.508                                  
  21751351.471      279264.199                                  
  22292067.294      101254.5962                                 
  38541078.234      198045.6022                                 
  22961677.842      300877.9612                                 
  24278932.290      321146.393                                  
  24275572.757      237073.4142                                 
  24143398.107       91447.1062                                 
 18  5 14 15  2 41.0010000  0  9G26G21G29G16S36G31G25G 5G20
  20890741.772      161302.679                                  
  21428463.400      164200.638                                  
  21752816.905      286966.875                                  
  22292571.405      103901.7312                                 
  38542103.931      203437.0452                                 
  22963262.584      309202.0033                                 
  24280625.084      330045.802                                  
  24276812.429      243587.4502                                 
  24143798.441       93549.0782                                 
 18  5 14 15  2 42.0010000  0  9G26G21G29G16S36G31G25G 5G20
  20891542.824      165513.184                                  
  21429283.141      168506.992                                  
  21754281.249      294662.531                                  
  22293074.120      106541.8602                                 
  38543128.372      208821.2532                                 
  22964846.034      317519.1702                                 
  24282316.385      338938.121                                  
  24278050.906      250094.8062                                 
  24144197.432       95643.9642                                 
 18  5 14 15  2 43.0010000  0  9G26G21G29G16S36G31G25G 5G20
  20892342.672      169717.521                                  
  21430101.984      172807.188                                  
  21755743.708      302351.764                                  
  22293574.993      109175.184                                  
  38544150.990      214198.8822                                 
  22966428.184      325830.0172                                 
  24284007.259      347823.947                                  
  24279288.371      256596.120                                  
  24144594.887       97731.803                                  
 18  5 14 15  2 44.0010000  0  9G26G21G29G16S36G31G25G 5G20
  20893141.561      173916.714                                  
  21430919.239      177102.220                                  
  21757205.321      310035.589                                  
  22294074.890      111803.520                                  
  38545173.145      219570.8642                                 
  22968008.581      334135.5052                                 
  24285696.606      356704.312                                  
  24280524.640      263092.404                                  
  24144991.451       99814.644                                  
 18  5 14 15  2 45.0010000  0  9G26G21G29G16S36G31G25G 5G20
  20893940.362      178111.924                                  
  21431736.075      181393.288                                  
  21758666.445      317715.199                                  
  22294574.175      114427.791                                  
  38546194.603      224938.3272                                 
  22969588.340      342436.8712                                 
  24287385.115      365580.341                                  
  24281759.304      269584.844                                  
  24145387.929      101893.155                                  
 18  5 14 15  2 46.0010000  0  9G26G21G29G16S36G31G25G 5G20
  20894737.383      182302.766                                  
  21432550.956      185679.999                                  
  21760127.465      325390.224                                  
  22295073.199      117047.476                                  
  38547214.454      230300.8062                                 
  22971166.285      350733.7172                                 
  24289072.638      374451.690                                  
  24282993.235      276073.026                                  
  24145782.522      103966.917                                  
 18  5 14 15  2 47.0010000  0  9G26G21G29G16S36G31G25G 5G20
  20895533.759      186487.987                                  
  21433365.978      189961.078                                  
  21761587.036      333059.342                                  
  22295570.949      119661.320                                  
  38548233.861      235657.1722                                 
  22972743.540      359024.7633                                 
  24290760.004      383317.062                                  
  24284226.922      282555.753                                  
  24146175.920      106034.699                                  
 18  5 14 15  2 48.0010000  0  9G26G21G29G16S36G31G25G 5G20
  20896329.149      190668.253                                  
  21434179.524      194237.209                                  
  21763045.630      340723.263                                  
  22296067.076      122270.007                                  
  38549252.448      241008.1072                                 
  22974319.635      367310.6782                                 
  24292445.905      392177.191                                  
  24285459.754      289033.560                                  
  24146567.669      108097.127                                  
 18  5 14 15  2 49.0010000  0  9G26G21G29G16S36G31G25G 5G20
  20897123.273      194843.440                                  
  21434992.224      198508.246                                  
  21764502.225      348381.854                                  
  22296561.999      124873.415                                  
  38550269.918      246353.4822                                 
  22975894.928      375591.3672                                 
  24294130.950      401031.845                                  
  24286691.591      295506.511                                  
  24146958.868      110154.133                                  
 18  5 14 15  2 50.0010000  0  9G26G21G29G16S36G31G25G 5G20
  20897917.118      199015.007                                  
  21435804.471      202775.675                                  
  21765959.275      356037.0443                                 
  22297055.710      127472.978                                  
  38551285.695      251694.7232                                 
  22977469.583      383868.2903                                 
  24295815.149      409882.600                                  
  24287923.489      301975.932                                  
  24147349.177      112207.6903                                 
 18  5 14 15  2 51.0010000  0  9G26G21G29G16S36G31G25G 5G20
  20898710.370      203183.650                                  
  21436615.836      207040.169                                  
  21767415.251      363688.6202                                 
  22297549.141      130069.433                                  
  38552301.245      257032.5302                                 
  22979043.558      392142.0632                                 
  24297499.113      418730.071                                  
  24289154.279      308442.520                                  
  24147738.543      114257.4152                                 
 18  5 14 15  2 52.0010000  0  9G26G21G29G16S36G31G25G 5G20
  20899502.724      207348.520                                  
  21437426.224      211300.919                                  
  21768869.963      371336.1052                                 
  22298042.615      132661.892                                  
  38553315.801      262366.0422                                 
  22980616.433      400411.9403                                 
  24299181.541      427573.461                                  
  24290383.786      314905.530                                  
  24148126.645      116303.0152                                 
 18  5 14 15  2 53.0010000  0  8G26G21G29G16S36G31G25G 5
  20900294.588      211509.551                                  
  21438235.757      215557.818                                  
  21770323.688      378979.5562                                 
  22298534.965      135250.373                                  
  38554329.850      267695.1662                                 
  22982189.683      408677.7822                                 
  24300863.724      436412.678                                  
  24291612.945      321364.757                                  
 18  5 14 15  2 54.0010000  0  8G26G21G29G16S36G31G25G 5
  20901085.659      215667.011                                  
  21439045.456      219811.154                                  
  21771776.549      386619.1212                                 
  22299027.401      137834.970                                  
  38555342.836      273020.1762                                 
  22983761.747      416939.9292                                 
  24302544.747      445247.982                                  
  24292841.501      327820.556                                  
 18  5 14 15  2 55.0010000  0  8G26G21G29G16S36G31G25G 5
  20901876.250      219820.567                                  
  21439853.820      224060.585                                  
  21773228.067      394254.5922                                 
  22299517.979      140415.566                                  
  38556355.812      278340.7842                                 
  22985332.520      425198.0192                                 
  24304224.767      454079.064                                  
  24294069.403      334272.626                                  
 18  5 14 15  2 56.0010000  0  8G26G21G29G16S36G31G25G 5
  20902666.047      223971.473                                  
  21440662.193      228307.405                                  
  21774679.829      401887.1102                                 
  22300009.307      142993.292                                  
  38557367.497      283658.2162                                 
  22986903.328      433453.1842                                 
  24305904.734      462907.127                                  
  24295297.375      340722.043                                  
 18  5 14 15  2 57.0010000  0  8G26G21G29G16S36G31G25G 5
  20903455.791      228120.156                                  
  21441470.574      232551.975                                  
  21776130.370      409517.2152                                 
  22300499.196      145568.589                                  
  38558378.240      288972.8882                                 
  22988473.280      441706.0242                                 
  24307583.977      471732.656                                  
  24296525.312      347169.471                                  
 18  5 14 15  2 58.0010000  0  8G26G21G29G16S36G31G25G 5
  20904244.244      232265.732                                  
  21442277.106      236793.434                                  
  21777580.911      417143.9162                                 
  22300988.840      148140.528                                  
  38559389.070      294283.9112                                 
  22990041.645      449955.6212                                 
  24309263.177      480554.734                                  
  24297753.319      353613.862                                  
 18  5 14 15  2 59.0010000  0  8G26G21G29G16S36G31G25G 5
  20905032.532      236407.453                                  
  21443083.157      241031.044                                  
  21779030.282      424766.5602                                 
  22301476.897      150708.393                                  
  38560399.272      299590.6242                                 
  22991610.332      458201.2013                                 
  24310940.963      489372.654                                  
  24298979.781      360054.573                                  
 18  5 14 15  3  0.0010000  0  9G26G21G29G16S36G31G25G 5G20
  20905819.746      240546.050                                  
  21443888.607      245265.556                                  
  21780479.130      432385.7192                                 
  22301964.290      153272.997                                  
  38561408.339      304893.8282                                 
  22993179.115      466443.4262                                 
  24312617.850      498187.080                                  
  24300205.886      366492.246                                  
  24151210.090      132533.0413                                 
 18  5 14 15  3  1.0010000  0  9G26G21G29G16S36G31G25G 5G20
  20906606.428      244681.662                                  
  21444694.066      249497.049                                  
  21781927.559      440001.8183                                 
  22302450.724      155834.396                                  
  38562416.892      310193.5462                                 
  22994747.794      474682.5442                                 
  24314295.192      506998.235                                  
  24301431.502      372927.082                                  
  24151593.070      134546.1163                                 
 18  5 14 15  3  2.0010000  0  7G26G21G16S36G31G25G 5
  20907392.970      248815.451                                  
  21445498.695      253726.735                                  
  22302936.450      158394.2603                                 
  38563424.503      315491.0182                                 
  22996315.050      482919.6243                                 
  24315971.154      515807.200                                  
  24302656.629      379360.209                                  
 18  5 14 15  3  3.0010000  0  7G26G21G16S36G31G25G 5
  20908179.522      252947.789                                  
  21446303.377      257954.944                                  
  22303422.570      160951.9532                                 
  38564432.645      320786.5922                                 
  22997881.731      491155.1492                                 
  24317646.698      524614.391                                  
  24303881.521      385791.974                                  
 18  5 14 15  3  4.0010000  0  6G26G21S36G31G25G 5
  20908965.715      257077.531                                  
  21447107.213      262180.580                                  
  38565439.453      326079.1812                                 
  22999447.783      499387.8683                                 
  24319322.163      533418.622                                  
  24305105.907      392221.256                                  
 18  5 14 15  3  5.0010000  0  6G26G21S36G31G25G 5
  20909751.053      261204.605                                  
  21447911.153      266403.544                                  
  38566445.449      331368.6572                                 
  23001013.731      507617.7252                                 
  24320997.340      542219.891                                  
  24306330.040      398648.042                                  
 18  5 14 15  3  6.0010000  0  6G26G21S36G31G25G 5
  20910536.051      265329.020                                  
  21448714.386      270623.849                                  
  38567451.446      336654.9852                                 
  23002578.771      515844.7882                                 
  24322671.340      551018.167                                  
  24307553.579      405072.283                                  
 18  5 14 15  3  7.0010000  0  6G26G21S36G31G25G 5
  20911320.081      269450.356                                  
  21449517.882      274841.078                                  
  38568456.709      341937.6852                                 
  23004143.689      524068.5773                                 
  24324344.493      559813.032                                  
  24308776.551      411493.586                                  
 18  5 14 15  3  8.0010000  0  7G26G21G16S36G31G25G 5
  20912103.988      273570.521                                  
  21450320.286      279057.122                                  
  22305843.212      173698.6253                                 
  38569461.658      347218.6302                                 
  23005708.284      532291.1253                                 
  24326017.986      568606.371                                  
  24309999.585      417913.787                                  
 18  5 14 15  3  9.0010000  0  7G26G21S36G31G25G 5G20
  20912888.306      277689.962                                  
  21451122.019      283272.470                                  
  38570465.857      352498.2962                                 
  23007272.024      540512.6752                                 
  24327690.729      577398.649                                  
  24311221.589      424333.418                                  
  24154640.218      150560.6933                                 
 18  5 14 15  3 10.0010000  0  7G26G21S36G31G25G 5G20
  20913671.384      281807.416                                  
  21451924.555      287485.790                                  
  38571470.126      357775.4462                                 
  23008836.812      548732.1052                                 
  24329363.132      586188.618                                  
  24312443.200      430751.152                                  
  24155019.586      152552.2622                                 
 18  5 14 15  3 11.0010000  0  7G26G21S36G31G25G 5G20
  20914454.594      285922.492                                  
  21452725.589      291696.784                                  
  38572474.316      363049.7772                                 
  23010401.101      556948.9872                                 
  24331035.081      594975.877                                  
  24313664.000      437166.669                                  
  24155398.683      154541.0573                                 
 18  5 14 15  3 12.0010000  0  7G26G21S36G31G25G 5G20
  20915237.367      290035.727                                  
  21453526.284      295905.897                                  
  38573477.695      368321.8192                                 
  23011964.248      565163.8692                                 
  24332706.838      603760.963                                  
  24314883.386      443580.400                                  
  24155777.911      156527.7432                                 
 18  5 14 15  3 13.0010000  0  7G26G21S36G31G25G 5G20
  20916019.416      294147.146                                  
  21454327.092      300113.235                                  
  38574480.734      373591.4482                                 
  23013526.182      573376.7523                                 
  24334377.879      612543.911                                  
  24316102.537      449992.467                                  
  24156155.848      158512.2032                                 
 18  5 14 15  3 14.0010000  0  7G26G21S36G31G25G 5G20
  20916801.412      298257.442                                  
  21455127.926      304319.423                                  
  38575482.900      378859.4712                                 
  23015088.265      581588.3653                                 
  24336049.008      621325.385                                  
  24317322.045      456403.543                                  
  24156533.872      160495.2373                                 
 18  5 14 15  3 15.0010000  0  7G26G21S36G31G25G 5G20
  20917583.444      302367.417                                  
  21455928.175      308525.286                                  
  38576485.537      384126.6452                                 
  23016651.194      589799.4603                                 
  24337720.756      630106.191                                  
  24318541.336      462814.393                                  
  24156911.224      162477.4702                                 
 18  5 14 15  3 16.0010000  0  7G26G21S36G31G25G 5G20
  20918364.725      306476.141                                  
  21456727.692      312729.921                                  
  38577487.999      389392.2352                                 
  23018213.756      598009.1093                                 
  24339391.990      638885.417                                  
  24319760.835      469224.090                                  
  24157288.323      164458.1303                                 
 18  5 14 15  3 17.0010000  0  6G26G21S36G31G25G 5
  20919146.355      310582.233                                  
  21457527.636      316931.906                                  
  38578489.275      394654.6742                                 
  23019775.908      606215.9832                                 
  24341062.334      647661.691                                  
  24320980.126      475631.341                                  
 18  5 14 15  3 18.0010000  0  6G26G21S36G31G25G 5
  20919927.235      314686.982                                  
  21458326.333      321132.566                                  
  38579489.662      399915.1342                                 
  23021337.458      614421.3322                                 
  24342731.587      656436.298                                  
  24322198.256      482037.351                                  
 18  5 14 15  3 19.0010000  0  8G26G21G29G16S36G31G25G 5
  20920708.193      318790.630                                  
  21459125.378      325332.103                                  
  21807956.941      576715.0873                                 
  22311149.334      201573.4732                                 
  38580490.580      405174.0162                                 
  23022897.874      622625.4542                                 
  24344401.188      665209.437                                  
  24323416.970      488442.343                                  
 18  5 14 15  3 20.0010000  0  8G26G21G29G16S36G31G25G 5
  20921488.183      322893.166                                  
  21459923.699      329530.532                                  
  21809400.510      584293.2422                                 
  22311631.719      204097.9732                                 
  38581491.036      410431.2522                                 
  23024459.294      630828.2052                                 
  24346070.529      673981.131                                  
  24324635.309      494846.354                                  
 18  5 14 15  3 21.0010000  0  9G26G21G29G16S36G31G25G 5G20
  20922268.321      326995.685                                  
  21460722.518      333728.957                                  
  21810840.424      591871.1032                                 
  22312113.084      206622.2382                                 
  38582491.151      415687.9592                                 
  23026020.250      639030.8963                                 
  24347740.323      682752.482                                  
  24325853.622      501250.489                                  
  24159167.773      174331.9253                                 
 18  5 14 15  3 22.0010000  0  9G26G21G29G16S36G31G25G 5G20
  20923049.262      331098.163                                  
  21461521.293      337927.349                                  
  21812286.384      599448.6602                                 
  22312593.846      209146.2482                                 
  38583491.459      420944.1562                                 
  23027580.719      647233.2672                                 
  24349409.104      691523.480                                  
  24327072.101      507654.683                                  
  24159543.267      176304.1162                                 
 18  5 14 15  3 23.0010000  0  9G26G21G29G16S36G31G25G 5G20
  20923829.714      335198.919                                  
  21462319.693      342123.988                                  
  21813724.770      607024.2432                                 
  22313074.765      211668.3892                                 
  38584491.156      426198.0882                                 
  23029140.890      655433.8002                                 
  24351078.244      700292.386                                  
  24328290.319      514057.260                                  
  24159918.359      178274.2093                                 
 18  5 14 15  3 24.0010000  0  9G26G21G29G16S36G31G25G 5G20
  20924609.800      339298.600                                  
  21463118.093      346319.570                                  
  21815162.302      614598.5052                                 
  22313554.768      214189.1822                                 
  38585490.399      431450.4042                                 
  23030700.713      663633.1212                                 
  24352746.869      709059.922                                  
  24329508.318      520458.900                                  
  24160292.928      180242.9333                                 
 18  5 14 15  3 25.0010000  0  9G26G21G29G16S36G31G25G 5G20
  20925390.113      343397.169                                  
  21463916.449      350514.052                                  
  21816603.201      622171.4822                                 
  22314035.025      216708.157                                  
  38586489.895      436701.0792                                 
  23032260.876      671831.0472                                 
  24354414.882      717825.985                                  
  24330726.954      526859.555                                  
  24160667.305      182210.1602                                 
 18  5 14 15  3 26.0010000  0  8G26G21G16S36G31G25G 5G20
  20926169.885      347494.627                                  
  21464714.151      354707.445                                  
  22314514.940      219226.380                                  
  38587489.217      441950.1282                                 
  23033820.349      680027.7362                                 
  24356082.146      726590.607                                  
  24331944.822      533259.251                                  
  24161041.176      184175.9282                                 
 18  5 14 15  3 27.0010000  0  8G26G21G16S36G31G25G 5G20
  20926949.168      351592.062                                  
  21465512.175      358900.787                                  
  22314994.603      221744.331                                  
  38588487.683      447198.6672                                 
  23035379.369      688224.2402                                 
  24357749.000      735354.815                                  
  24333163.048      539658.971                                  
  24161415.509      186141.2292                                 
 18  5 14 15  3 28.0010000  0  7G26G21S36G31G25G 5G20
  20927729.088      355690.146                                  
  21466309.938      363094.810                                  
  38589486.455      452447.3642                                 
  23036938.878      696421.1793                                 
  24359416.918      744119.409                                  
  24334381.212      546059.515                                  
  24161789.179      188106.8963                                 
 18  5 14 15  3 29.0010000  0  7G26G21S36G31G25G 5G20
  20928508.606      359786.959                                  
  21467107.544      367287.547                                  
  38590485.279      457694.3382                                 
  23038498.430      704616.7632                                 
  24361084.556      752882.377                                  
  24335599.211      552458.907                                  
  24162162.972      190070.8712                                 
 18  5 14 15  3 30.0010000  0  7G26G21S36G31G25G 5G20
  20929288.431      363882.600                                  
  21467905.542      371479.107                                  
  38591482.917      462939.6252                                 
  23040057.904      712810.9572                                 
  24362752.239      761643.844                                  
  24336816.861      558857.225                                  
  24162535.961      192033.3392                                 
 18  5 14 15  3 31.0010000  0  6G26G21S36G31G25G 5
  20930067.129      367976.777                                  
  21468703.393      375669.192                                  
  38592480.433      468182.9572                                 
  23041616.985      721003.4852                                 
  24364419.441      770403.504                                  
  24338033.874      565254.209                                  
 18  5 14 15  3 32.0010000  0  7G26G21S36G31G25G 5G20
  20930845.522      372070.526                                  
  21469500.859      379858.852                                  
  38593478.105      473425.3592                                 
  23043175.603      729195.4793                                 
  24366085.797      779162.371                                  
  24339251.053      571650.871                                  
  24163281.644      195953.8362                                 
 18  5 14 15  3 33.0010000  0  7G26G21S36G31G25G 5G20
  20931624.858      376164.833                                  
  21470298.334      384049.066                                  
  38594476.231      478667.8002                                 
  23044734.187      737387.6913                                 
  24367752.346      787921.494                                  
  24340468.285      578048.201                                  
  24163655.297      197913.8922                                 
 18  5 14 15  3 34.0010000  0  7G26G21S36G31G25G 5G20
  20932404.237      380259.656                                  
  21471095.940      388239.788                                  
  38595473.189      483910.2492                                 
  23046293.067      745580.3792                                 
  24369418.920      796680.770                                  
  24341686.336      584446.188                                  
  24164028.819      199874.0712                                 
 18  5 14 15  3 35.0010000  0  7G26G21S36G31G25G 5G20
  20933183.310      384354.258                                  
  21471892.874      392430.279                                  
  38596470.861      489152.0172                                 
  23047852.558      753772.7223                                 
  24371085.922      805439.514                                  
  24342904.099      590844.067                                  
  24164402.637      201833.6642                                 
 18  5 14 15  3 36.0010000  0  7G26G21S36G31G25G 5G20
  20933962.393      388447.711                                  
  21472689.659      396619.643                                  
  38597467.809      494392.1022                                 
  23049411.648      761963.6162                                 
  24372752.322      814196.759                                  
  24344121.069      597240.902                                  
  24164775.400      203791.7792                                 
 18  5 14 15  3 37.0010000  0  7G26G21S36G31G25G 5G20
  20934741.536      392541.359                                  
  21473487.195      400809.185                                  
  38598464.409      499631.8152                                 
  23050971.305      770154.5342                                 
  24374417.875      822953.862                                  
  24345338.317      603638.053                                  
  24165147.483      205749.7172                                 
 18  5 14 15  3 38.0010000  0  7G26G21S36G31G25G 5G20
  20935520.287      396635.028                                  
  21474284.295      404998.769                                  
  38599460.790      504871.0842                                 
  23052530.255      778345.4163                                 
  24376084.214      831710.673                                  
  24346556.282      610035.358                                  
  24165519.033      207707.2503                                 
 18  5 14 15  3 39.0010000  0  7G26G21S36G31G25G 5G20
  20936299.562      400729.474                                  
  21475081.430      409189.104                                  
  38600457.861      510110.5962                                 
  23054089.022      786536.8253                                 
  24377750.535      840467.889                                  
  24347773.836      616433.554                                  
  24165890.644      209665.2642                                 
 18  5 14 15  3 40.0010000  0  7G26G21S36G31G25G 5G20
  20937078.958      404824.774                                  
  21475879.001      413380.322                                  
  38601455.062      515350.5862                                 
  23055647.893      794728.8653                                 
  24379416.490      849225.644                                  
  24348991.730      622832.700                                  
  24166262.752      211623.7172                                 
 18  5 14 15  3 41.0010000  0  7G26G21S36G31G25G 5G20
  20937858.485      408921.227                                  
  21476677.121      417572.662                                  
  38602452.264      520591.2332                                 
  23057207.733      802921.9883                                 
  24381083.082      857984.181                                  
  24350209.328      629233.115                                  
  24166634.852      213583.0342                                 
 18  5 14 15  3 42.0010000  0  7G26G21S36G31G25G 5G20
  20938638.205      413017.317                                  
  21477474.745      421764.668                                  
  38603449.116      525830.9552                                 
  23058766.823      811114.5622                                 
  24382748.722      866742.051                                  
  24351427.711      635633.349                                  
  24167006.882      215541.4822                                 
 18  5 14 15  3 43.0010000  0  7G26G21S36G31G25G 5G20
  20939417.034      417112.955                                  
  21478272.359      425956.198                                  
  38604446.405      531069.6572                                 
  23060325.468      819306.4743                                 
  24384414.669      875499.129                                  
  24352645.814      642033.188                                  
  24167378.728      217499.2152                                 
 18  5 14 15  3 44.0010000  0  7G26G21S36G31G25G 5G20
  20940196.483      421208.304                                  
  21479069.162      430147.428                                  
  38605443.458      536307.6102                                 
  23061883.798      827497.9813                                 
  24386080.397      884255.561                                  
  24353863.787      648432.876                                  
  24167751.090      219456.3472                                 
 18  5 14 15  3 45.0010000  0  7G26G21S36G31G25G 5G20
  20940975.583      425303.151                                  
  21479866.402      434338.178                                  
  38606440.005      541544.5192                                 
  23063441.824      835688.7843                                 
  24387746.046      893011.184                                  
  24355081.603      654832.183                                  
  24168123.146      221412.4932                                 
 18  5 14 15  3 46.0010000  0  6G26G21S36G25G 5G20
  20941754.814      429399.233                                  
  21480663.868      438530.156                                  
  38607436.360      546782.1862                                 
  24389411.643      901767.660                                  
  24356299.593      661232.850                                  
  24168495.429      223369.6062                                 
 18  5 14 15  3 47.0010000  0  6G26G21S36G25G 5G20
  20942534.393      433496.598                                  
  21481461.639      442723.419                                  
  38608433.177      552020.5882                                 
  24391078.697      910525.118                                  
  24357517.557      667634.922                                  
  24168868.672      225327.5732                                 
 18  5 14 15  3 48.0010000  0  6G26G21S36G25G 5G20
  20943314.593      437594.219                                  
  21482259.193      446916.926                                  
  38609429.960      557258.7362                                 
  24392744.923      919282.483                                  
  24358735.870      674037.351                                  
  24169241.688      227285.4443                                 
 18  5 14 15  3 49.0010000  0  6G26G21S36G25G 5G20
  20944094.207      441691.270                                  
  21483057.113      451109.874                                  
  38610426.760      562495.8122                                 
  24394411.567      928038.916                                  
  24359954.271      680439.331                                  
  24169614.032      229242.3762                                 
 18  5 14 15  3 50.0010000  0  6G26G21S36G25G 5G20
  20944873.700      445787.051                                  
  21483855.277      455301.533                                  
  38611423.351      567731.1432                                 
  24396076.780      936793.791                                  
  24361172.383      686840.152                                  
  24169985.555      231197.7252                                 
 18  5 14 15  3 51.0010000  0  6G26G21S36G25G 5G20
  20945653.419      449883.716                                  
  21484653.171      459494.108                                  
  38612419.575      572966.7932                                 
  24397743.703      945549.170                                  
  24362390.941      693241.972                                  
  24170357.341      233153.5802                                 
 18  5 14 15  3 52.0010000  0  6G26G21S36G25G 5G20
  20946433.112      453982.315                                  
  21485451.658      463688.631                                  
  38613415.398      578203.9452                                 
  24399410.060      954306.171                                  
  24363609.245      699645.834                                  
  24170729.231      235110.9743                                 
 18  5 14 15  3 53.0010000  0  6G26G21S36G25G 5G20
  20947213.495      458082.912                                  
  21486250.197      467885.133                                  
  38614412.302      583442.5472                                 
  24401077.122      963064.837                                  
  24364828.727      706051.846                                  
  24171101.741      237070.0092                                 
 18  5 14 15  3 54.0010000  0  6G26G21S36G25G 5G20
  20947993.668      462183.743                                  
  21487048.841      472081.854                                  
  38615409.181      588680.8622                                 
  24402744.456      971823.369                                  
  24366048.690      712458.146                                  
  24171473.998      239028.9343                                 
 18  5 14 15  3 55.0010000  0  6G26G21S36G25G 5G20
  20948773.876      466285.169                                  
  21487846.945      476279.163                                  
  38616406.129      593919.2642                                 
  24404410.114      980582.145                                  
  24367267.910      718865.199                                  
  24171846.368      240988.1412                                 
 18  5 14 15  3 56.0010000  0  6G26G21S36G25G 5G20
  20949554.869      470386.478                                  
  21488645.763      480476.371                                  
  38617402.502      599157.0552                                 
  24406076.200      989340.509                                  
  24368487.209      725272.280                                  
  24172218.581      242946.8333                                 
 18  5 14 15  3 57.0010000  0  6G26G21S36G25G 5G20
  20950335.269      474488.185                                  
  21489444.311      484673.964                                  
  38618398.927      604394.7312                                 
  24407742.957      998098.919                                  
  24369706.569      731679.855                                  
  24172591.440      244905.5773                                 
 18  5 14 15  3 58.0010000  0  6G26G21S36G25G 5G20
  20951116.376      478592.031                                  
  21490243.732      488873.684                                  
  38619396.015      609634.0052                                 
  24409409.514     1006859.127                                  
  24370926.645      738089.630                                  
  24172964.482      246866.0562                                 
 18  5 14 15  3 59.0010000  0  6G26G21S36G25G 5G20
  20951897.264      482698.438                                  
  21491043.851      493075.978                                  
  38620393.748      614875.3062                                 
  24411076.952     1015621.544                                  
  24372147.349      744502.153                                  
  24173338.388      248828.7582                                 
 18  5 14 15  4  0.0010000  0  7G26G21G29S36G25G 5G20
  20952678.737      486805.886                                  
  21491843.428      497279.309                                  
  21867033.763      886985.7393                                 
  38621390.985      620117.1792                                 
  24412744.268     1024384.674                                  
  24373367.590      750915.826                                  
  24173712.582      250792.1133                                 
 18  5 14 15  4  1.0010000  0  7G26G21G29S36G25G 5G20
  20953460.324      490913.317                                  
  21492643.146      501482.633                                  
  21868478.816      894558.3312                                 
  38622389.233      625358.3982                                 
  24414413.329     1033147.450                                  
  24374588.146      757329.577                                  
  24174086.191      252755.1152                                 
 18  5 14 15  4  2.0010000  0  7G26G21G29S36G25G 5G20
  20954242.146      495021.257                                  
  21493443.840      505686.436                                  
  21869919.671      902131.1542                                 
  38623386.862      630599.5752                                 
  24416081.701     1041910.387                                  
  24375808.361      763743.987                                  
  24174460.428      254718.1843                                 
 18  5 14 15  4  3.0010000  0  8G26G21G29S36G31G25G 5G20
  20955023.968      499129.665                                  
  21494244.168      509890.715                                  
  21871359.471      909704.1822                                 
  38624384.657      635840.7472                                 
  23091518.700      983217.1563                                 
  24417749.828     1050673.454                                  
  24377029.187      770158.930                                  
  24174834.290      256681.4113                                 
 18  5 14 15  4  4.0010000  0  8G26G21G29S36G31G25G 5G20
  20955805.694      503239.251                                  
  21495044.287      514096.163                                  
  21872796.916      917278.1292                                 
  38625382.338      641082.6722                                 
  23093081.577      991419.3243                                 
  24419418.436     1059437.374                                  
  24378250.240      776575.162                                  
  24175208.467      258645.5192                                 
 18  5 14 15  4  5.0010000  0  7G26G21G29S36G25G 5G20
  20956587.403      507350.540                                  
  21495844.685      518303.326                                  
